[
  {
    "id": "osm-10281201639",
    "name": "Berkshire Health Urgent Care",
    "type": "urgent_care",
    "lat": 42.447752,
    "lon": -73.24438,
    "address": "",
    "city": "",
    "state": "NY",
    "zip": "",
    "phone": "",
    "website": "",
    "sourceUrl": "https://www.openstreetmap.org/node/10281201639",
    "lastVerified": "2026-01-06",
    "nearestResort": "Bousquet",
    "nearestResortDist": 0.5
  },
  {
    "id": "osm-11991073440",
    "name": "CommonSpirit Emergency & Urgent Care",
    "type": "urgent_care",
    "lat": 39.476483,
    "lon": -106.047049,
    "address": "555 South Park Avenue",
    "city": "Breckenridge",
    "state": "CO",
    "zip": "80424",
    "phone": "",
    "website": "https://www.mountain.commonspirit.org/location/commonspirit-emergency-urgent-care-breckenridge",
    "sourceUrl": "https://www.openstreetmap.org/node/11991073440",
    "lastVerified": "2026-01-06",
    "nearestResort": "Breckenridge",
    "nearestResortDist": 0.6
  },
  {
    "id": "osm-4605016612",
    "name": "MedExpress",
    "type": "urgent_care",
    "lat": 40.431857,
    "lon": -79.750504,
    "address": "",
    "city": "",
    "state": "PA",
    "zip": "",
    "phone": "",
    "website": "",
    "sourceUrl": "https://www.openstreetmap.org/node/4605016612",
    "lastVerified": "2026-01-06",
    "nearestResort": "Boyce Park",
    "nearestResortDist": 0.9
  },
  {
    "id": "osm-238463656",
    "name": "UCHealth Urgent Care",
    "type": "urgent_care",
    "lat": 40.464526,
    "lon": -106.826453,
    "address": "1600 Mid Valley Drive",
    "city": "Steamboat Springs",
    "state": "CO",
    "zip": "80487",
    "phone": "+1 970 846 6230",
    "website": "https://steamboatemergency.com/",
    "sourceUrl": "https://www.openstreetmap.org/way/238463656",
    "lastVerified": "2026-01-06",
    "is24Hour": true,
    "nearestResort": "Steamboat",
    "nearestResortDist": 1.3
  },
  {
    "id": "osm-396820729",
    "name": "UPMC Urgent Care Monroeville",
    "type": "urgent_care",
    "lat": 40.439422,
    "lon": -79.765935,
    "address": "4145 William Penn Highway",
    "city": "",
    "state": "PA",
    "zip": "15146",
    "phone": "",
    "website": "https://www.upmc.com/services/urgent-care/locations/pages/monroeville.aspx",
    "sourceUrl": "https://www.openstreetmap.org/way/396820729",
    "lastVerified": "2026-01-06",
    "nearestResort": "Boyce Park",
    "nearestResortDist": 1.8
  },
  {
    "id": "osm-404986755",
    "name": "Mercy Urgent Care and Radiology",
    "type": "urgent_care",
    "lat": 38.495675,
    "lon": -90.627078,
    "address": "",
    "city": "",
    "state": "IL",
    "zip": "",
    "phone": "",
    "website": "",
    "sourceUrl": "https://www.openstreetmap.org/way/404986755",
    "lastVerified": "2026-01-06",
    "nearestResort": "Hidden Valley",
    "nearestResortDist": 1.9
  },
  {
    "id": "osm-404986755",
    "name": "Mercy Urgent Care and Radiology",
    "type": "urgent_care",
    "lat": 38.495675,
    "lon": -90.627078,
    "address": "",
    "city": "",
    "state": "MO",
    "zip": "",
    "phone": "",
    "website": "",
    "sourceUrl": "https://www.openstreetmap.org/way/404986755",
    "lastVerified": "2026-01-06",
    "nearestResort": "Hidden Valley",
    "nearestResortDist": 1.9
  },
  {
    "id": "osm-3066901695",
    "name": "St. John's Family Heath and Urgent Care",
    "type": "urgent_care",
    "lat": 43.458629,
    "lon": -110.793846,
    "address": "1415 South US 89",
    "city": "Jackson",
    "state": "WY",
    "zip": "83001",
    "phone": "+1-307-739-8999",
    "website": "",
    "sourceUrl": "https://www.openstreetmap.org/node/3066901695",
    "lastVerified": "2026-01-06",
    "nearestResort": "Snow King",
    "nearestResortDist": 2.1
  },
  {
    "id": "osm-6090336513",
    "name": "Aspirus Family Walk-In",
    "type": "urgent_care",
    "lat": 44.964489,
    "lon": -89.667935,
    "address": "2720 Plaza Drive",
    "city": "Wausau",
    "state": "MI",
    "zip": "54401",
    "phone": "",
    "website": "",
    "sourceUrl": "https://www.openstreetmap.org/node/6090336513",
    "lastVerified": "2026-01-06",
    "nearestResort": "Granite Peak",
    "nearestResortDist": 2.4
  },
  {
    "id": "osm-8269307569",
    "name": "Pine Knob Urgent Care",
    "type": "urgent_care",
    "lat": 42.730488,
    "lon": -83.378852,
    "address": "",
    "city": "",
    "state": "MI",
    "zip": "",
    "phone": "",
    "website": "",
    "sourceUrl": "https://www.openstreetmap.org/node/8269307569",
    "lastVerified": "2026-01-06",
    "nearestResort": "Pine Knob",
    "nearestResortDist": 2.4
  },
  {
    "id": "osm-1217651157",
    "name": "Superior Walk-In and Family Health",
    "type": "urgent_care",
    "lat": 46.550013,
    "lon": -87.439628,
    "address": "2382 US-41/M-28",
    "city": "Marquette",
    "state": "MI",
    "zip": "49855",
    "phone": "+1-906-226-2233",
    "website": "",
    "sourceUrl": "https://www.openstreetmap.org/way/1217651157",
    "lastVerified": "2026-01-06",
    "nearestResort": "Marquette Mountain",
    "nearestResortDist": 2.4
  },
  {
    "id": "osm-6090336513",
    "name": "Aspirus Family Walk-In",
    "type": "urgent_care",
    "lat": 44.964489,
    "lon": -89.667935,
    "address": "2720 Plaza Drive",
    "city": "Wausau",
    "state": "MN",
    "zip": "54401",
    "phone": "",
    "website": "",
    "sourceUrl": "https://www.openstreetmap.org/node/6090336513",
    "lastVerified": "2026-01-06",
    "nearestResort": "Granite Peak",
    "nearestResortDist": 2.4
  },
  {
    "id": "osm-6354079255",
    "name": "Middlesex Hospital Urgent Care",
    "type": "urgent_care",
    "lat": 41.55507,
    "lon": -72.682242,
    "address": "896 Washington Street",
    "city": "Middletown",
    "state": "NY",
    "zip": "06457",
    "phone": "+1-860-788-3632",
    "website": "https://middlesexhealth.org/urgent-care",
    "sourceUrl": "https://www.openstreetmap.org/node/6354079255",
    "lastVerified": "2026-01-06",
    "nearestResort": "Powder Ridge",
    "nearestResortDist": 2.8
  },
  {
    "id": "osm-791735504",
    "name": "Optcom Urgent Care",
    "type": "urgent_care",
    "lat": 41.554966,
    "lon": -72.677374,
    "address": "",
    "city": "",
    "state": "NY",
    "zip": "",
    "phone": "",
    "website": "",
    "sourceUrl": "https://www.openstreetmap.org/way/791735504",
    "lastVerified": "2026-01-06",
    "nearestResort": "Powder Ridge",
    "nearestResortDist": 2.8
  },
  {
    "id": "osm-6349697996",
    "name": "Waldwick Urgent Care",
    "type": "urgent_care",
    "lat": 41.012447,
    "lon": -74.139237,
    "address": "",
    "city": "",
    "state": "NY",
    "zip": "",
    "phone": "",
    "website": "",
    "sourceUrl": "https://www.openstreetmap.org/node/6349697996",
    "lastVerified": "2026-01-06",
    "nearestResort": "Campgaw Mountain",
    "nearestResortDist": 3.7
  },
  {
    "id": "osm-603517161",
    "name": "Riverside Urgent Care",
    "type": "urgent_care",
    "lat": 41.527352,
    "lon": -72.774309,
    "address": "875 East Main Street",
    "city": "Meriden",
    "state": "NY",
    "zip": "06450",
    "phone": "",
    "website": "",
    "sourceUrl": "https://www.openstreetmap.org/way/603517161",
    "lastVerified": "2026-01-06",
    "nearestResort": "Powder Ridge",
    "nearestResortDist": 3.9
  },
  {
    "id": "osm-7496048809",
    "name": "Urgent Care Medical Clinic",
    "type": "urgent_care",
    "lat": 61.196041,
    "lon": -149.781214,
    "address": "5437 East Northern Lights Boulevard",
    "city": "Anchorage",
    "state": "AK",
    "zip": "99508",
    "phone": "",
    "website": "",
    "sourceUrl": "https://www.openstreetmap.org/node/7496048809",
    "lastVerified": "2026-01-06",
    "nearestResort": "Hilltop",
    "nearestResortDist": 4.2
  },
  {
    "id": "osm-12001768208",
    "name": "SVHC Urgent Care",
    "type": "urgent_care",
    "lat": 42.699358,
    "lon": -73.165208,
    "address": "",
    "city": "",
    "state": "NY",
    "zip": "",
    "phone": "",
    "website": "",
    "sourceUrl": "https://www.openstreetmap.org/node/12001768208",
    "lastVerified": "2026-01-06",
    "nearestResort": "Mount Greylock",
    "nearestResortDist": 4.3
  },
  {
    "id": "osm-10790644239",
    "name": "Alaska Urgent Care & Sports Medicine",
    "type": "urgent_care",
    "lat": 61.144073,
    "lon": -149.858418,
    "address": "",
    "city": "",
    "state": "AK",
    "zip": "",
    "phone": "",
    "website": "",
    "sourceUrl": "https://www.openstreetmap.org/node/10790644239",
    "lastVerified": "2026-01-06",
    "nearestResort": "Hilltop",
    "nearestResortDist": 4.3
  },
  {
    "id": "osm-11153696240",
    "name": "PCA Urgent Care - Lake Otis",
    "type": "urgent_care",
    "lat": 61.182993,
    "lon": -149.840802,
    "address": "",
    "city": "",
    "state": "AK",
    "zip": "",
    "phone": "",
    "website": "",
    "sourceUrl": "https://www.openstreetmap.org/node/11153696240",
    "lastVerified": "2026-01-06",
    "nearestResort": "Hilltop",
    "nearestResortDist": 4.7
  },
  {
    "id": "osm-11374104946",
    "name": "AFC Urgent Care",
    "type": "urgent_care",
    "lat": 41.112988,
    "lon": -74.113577,
    "address": "",
    "city": "",
    "state": "NY",
    "zip": "",
    "phone": "",
    "website": "",
    "sourceUrl": "https://www.openstreetmap.org/node/11374104946",
    "lastVerified": "2026-01-06",
    "nearestResort": "Campgaw Mountain",
    "nearestResortDist": 4.8
  },
  {
    "id": "osm-11115524736",
    "name": "Alaska Urgent Care",
    "type": "urgent_care",
    "lat": 61.143979,
    "lon": -149.876771,
    "address": "",
    "city": "",
    "state": "AK",
    "zip": "",
    "phone": "",
    "website": "",
    "sourceUrl": "https://www.openstreetmap.org/node/11115524736",
    "lastVerified": "2026-01-06",
    "nearestResort": "Hilltop",
    "nearestResortDist": 4.9
  },
  {
    "id": "osm-1006848249",
    "name": "UnityPoint Clinic Family Medicine and Walk-In Care",
    "type": "urgent_care",
    "lat": 42.445308,
    "lon": -90.849628,
    "address": "8456 Peosta Commercial Court",
    "city": "Peosta",
    "state": "IL",
    "zip": "52068",
    "phone": "",
    "website": "",
    "sourceUrl": "https://www.openstreetmap.org/way/1006848249",
    "lastVerified": "2026-01-06",
    "nearestResort": "Sundown Mountain",
    "nearestResortDist": 4.9
  },
  {
    "id": "osm-1006848249",
    "name": "UnityPoint Clinic Family Medicine and Walk-In Care",
    "type": "urgent_care",
    "lat": 42.445308,
    "lon": -90.849628,
    "address": "8456 Peosta Commercial Court",
    "city": "Peosta",
    "state": "IA",
    "zip": "52068",
    "phone": "",
    "website": "",
    "sourceUrl": "https://www.openstreetmap.org/way/1006848249",
    "lastVerified": "2026-01-06",
    "nearestResort": "Sundown Mountain",
    "nearestResortDist": 4.9
  },
  {
    "id": "osm-768964151",
    "name": "UR Medicine Urgent Care",
    "type": "urgent_care",
    "lat": 42.980556,
    "lon": -77.358791,
    "address": "1160 East Corporate Drive",
    "city": "Farmington",
    "state": "NY",
    "zip": "14425",
    "phone": "+1 585-924-1510",
    "website": "https://www.urmc.rochester.edu/locations/urgent-care-farmington",
    "sourceUrl": "https://www.openstreetmap.org/node/768964151",
    "lastVerified": "2026-01-06",
    "nearestResort": "Brantling",
    "nearestResortDist": 5.3
  },
  {
    "id": "osm-502488479",
    "name": "Spectrum Health Integrated Care Campus - East Beltline",
    "type": "urgent_care",
    "lat": 43.011275,
    "lon": -85.587766,
    "address": "2750 East Beltline Avenue Northeast",
    "city": "Grand Rapids",
    "state": "MI",
    "zip": "",
    "phone": "",
    "website": "https://www.spectrumhealth.org/locations/spectrum-health-integrated-care-campus-at-east-beltline",
    "sourceUrl": "https://www.openstreetmap.org/way/502488479",
    "lastVerified": "2026-01-06",
    "nearestResort": "Cannonsburg",
    "nearestResortDist": 5.5
  },
  {
    "id": "osm-10793371375",
    "name": "PM Pediatric Urgent Care",
    "type": "urgent_care",
    "lat": 61.188649,
    "lon": -149.868909,
    "address": "",
    "city": "",
    "state": "AK",
    "zip": "",
    "phone": "",
    "website": "",
    "sourceUrl": "https://www.openstreetmap.org/node/10793371375",
    "lastVerified": "2026-01-06",
    "nearestResort": "Hilltop",
    "nearestResortDist": 5.7
  },
  {
    "id": "osm-1217865435",
    "name": "Hartford HealthCare GoHealth",
    "type": "urgent_care",
    "lat": 41.477262,
    "lon": -72.905614,
    "address": "1008 South Main Street",
    "city": "Cheshire",
    "state": "NY",
    "zip": "06410",
    "phone": "",
    "website": "",
    "sourceUrl": "https://www.openstreetmap.org/way/1217865435",
    "lastVerified": "2026-01-06",
    "nearestResort": "Mount Southington",
    "nearestResortDist": 5.9
  },
  {
    "id": "osm-798447267",
    "name": "St. Mary's Urgent Care - Gloversville",
    "type": "urgent_care",
    "lat": 43.067453,
    "lon": -74.332394,
    "address": "84 East State Street",
    "city": "Gloversville",
    "state": "NY",
    "zip": "12078",
    "phone": "",
    "website": "",
    "sourceUrl": "https://www.openstreetmap.org/way/798447267",
    "lastVerified": "2026-01-06",
    "nearestResort": "Oak Mountain",
    "nearestResortDist": 6.0
  },
  {
    "id": "osm-573405065",
    "name": "Grand View Urgent Care",
    "type": "urgent_care",
    "lat": 40.245141,
    "lon": -75.339668,
    "address": "1715 Sumneytown Pike",
    "city": "Lansdale",
    "state": "PA",
    "zip": "19446",
    "phone": "+1-215-453-5600",
    "website": "",
    "sourceUrl": "https://www.openstreetmap.org/way/573405065",
    "lastVerified": "2026-01-06",
    "nearestResort": "Spring Mountain",
    "nearestResortDist": 6.0
  },
  {
    "id": "osm-6215325423",
    "name": "CT Urgent Care",
    "type": "urgent_care",
    "lat": 41.607227,
    "lon": -72.709389,
    "address": "",
    "city": "",
    "state": "NY",
    "zip": "",
    "phone": "",
    "website": "",
    "sourceUrl": "https://www.openstreetmap.org/node/6215325423",
    "lastVerified": "2026-01-06",
    "nearestResort": "Powder Ridge",
    "nearestResortDist": 6.2
  },
  {
    "id": "osm-12426908033",
    "name": "Nuvanve Health | GoHealth | Urgent Care",
    "type": "urgent_care",
    "lat": 41.378764,
    "lon": -73.475136,
    "address": "",
    "city": "",
    "state": "NY",
    "zip": "",
    "phone": "",
    "website": "",
    "sourceUrl": "https://www.openstreetmap.org/node/12426908033",
    "lastVerified": "2026-01-06",
    "nearestResort": "Thunder Ridge",
    "nearestResortDist": 6.5
  },
  {
    "id": "osm-275422509",
    "name": "Mercy Health Urgent Care - East Beltline",
    "type": "urgent_care",
    "lat": 42.989132,
    "lon": -85.591761,
    "address": "1471 East Beltline Avenue Northeast",
    "city": "Grand Rapids",
    "state": "MI",
    "zip": "49525",
    "phone": "",
    "website": "http://www.mercyhealthsaintmarys.com/",
    "sourceUrl": "https://www.openstreetmap.org/way/275422509",
    "lastVerified": "2026-01-06",
    "nearestResort": "Cannonsburg",
    "nearestResortDist": 6.5
  },
  {
    "id": "osm-9768190049",
    "name": "Grand River Medical Group Urgent Care",
    "type": "urgent_care",
    "lat": 42.49006,
    "lon": -90.721519,
    "address": "3500 Dodge Street",
    "city": "Dubuque",
    "state": "IL",
    "zip": "52003",
    "phone": "",
    "website": "",
    "sourceUrl": "https://www.openstreetmap.org/node/9768190049",
    "lastVerified": "2026-01-06",
    "nearestResort": "Sundown Mountain",
    "nearestResortDist": 6.8
  },
  {
    "id": "osm-9768190049",
    "name": "Grand River Medical Group Urgent Care",
    "type": "urgent_care",
    "lat": 42.49006,
    "lon": -90.721519,
    "address": "3500 Dodge Street",
    "city": "Dubuque",
    "state": "IA",
    "zip": "52003",
    "phone": "",
    "website": "",
    "sourceUrl": "https://www.openstreetmap.org/node/9768190049",
    "lastVerified": "2026-01-06",
    "nearestResort": "Sundown Mountain",
    "nearestResortDist": 6.8
  },
  {
    "id": "osm-7833970289",
    "name": "Concentra Urgent Care",
    "type": "urgent_care",
    "lat": 40.205329,
    "lon": -76.956997,
    "address": "4910 Ritter Road",
    "city": "Mechanicsburg",
    "state": "PA",
    "zip": "17055",
    "phone": "+17177951819",
    "website": "",
    "sourceUrl": "https://www.openstreetmap.org/node/7833970289",
    "lastVerified": "2026-01-06",
    "nearestResort": "Roundtop",
    "nearestResortDist": 6.9
  },
  {
    "id": "osm-8320648708",
    "name": "WellNow Urgent Care",
    "type": "urgent_care",
    "lat": 43.302237,
    "lon": -73.662315,
    "address": "202 Broad Street",
    "city": "Glens Falls",
    "state": "NY",
    "zip": "12801",
    "phone": "",
    "website": "https://www.wellnow.com/",
    "sourceUrl": "https://www.openstreetmap.org/node/8320648708",
    "lastVerified": "2026-01-06",
    "nearestResort": "West Mountain",
    "nearestResortDist": 7.0
  },
  {
    "id": "osm-8449926194",
    "name": "WellNow Urgent Care",
    "type": "urgent_care",
    "lat": 43.337031,
    "lon": -73.67875,
    "address": "920 United States Route 9",
    "city": "Queensbury",
    "state": "NY",
    "zip": "12804",
    "phone": "",
    "website": "",
    "sourceUrl": "https://www.openstreetmap.org/node/8449926194",
    "lastVerified": "2026-01-06",
    "nearestResort": "West Mountain",
    "nearestResortDist": 7.0
  },
  {
    "id": "osm-10782728302",
    "name": "Providence Urgent Care",
    "type": "urgent_care",
    "lat": 61.194564,
    "lon": -149.906055,
    "address": "",
    "city": "",
    "state": "AK",
    "zip": "",
    "phone": "",
    "website": "",
    "sourceUrl": "https://www.openstreetmap.org/node/10782728302",
    "lastVerified": "2026-01-06",
    "nearestResort": "Hilltop",
    "nearestResortDist": 7.0
  },
  {
    "id": "osm-658371027",
    "name": "Total Access Urgent Care",
    "type": "urgent_care",
    "lat": 38.592327,
    "lon": -90.56279,
    "address": "15420 Manchester Road",
    "city": "Ellisville",
    "state": "IL",
    "zip": "63011",
    "phone": "",
    "website": "",
    "sourceUrl": "https://www.openstreetmap.org/way/658371027",
    "lastVerified": "2026-01-06",
    "nearestResort": "Hidden Valley",
    "nearestResortDist": 7.0
  },
  {
    "id": "osm-658371027",
    "name": "Total Access Urgent Care",
    "type": "urgent_care",
    "lat": 38.592327,
    "lon": -90.56279,
    "address": "15420 Manchester Road",
    "city": "Ellisville",
    "state": "MO",
    "zip": "63011",
    "phone": "",
    "website": "",
    "sourceUrl": "https://www.openstreetmap.org/way/658371027",
    "lastVerified": "2026-01-06",
    "nearestResort": "Hidden Valley",
    "nearestResortDist": 7.0
  },
  {
    "id": "osm-5572321122",
    "name": "Grand Valley Surgical Center",
    "type": "urgent_care",
    "lat": 42.982761,
    "lon": -85.603178,
    "address": "2680 Leonard Street Northeast",
    "city": "Grand Rapids",
    "state": "MI",
    "zip": "49525",
    "phone": "+1 616 224 1110",
    "website": "https://www.gvsc-asc.com/",
    "sourceUrl": "https://www.openstreetmap.org/node/5572321122",
    "lastVerified": "2026-01-06",
    "nearestResort": "Cannonsburg",
    "nearestResortDist": 7.2
  },
  {
    "id": "osm-5572321200",
    "name": "OAM NOW Urgent Orthopaedic Care",
    "type": "urgent_care",
    "lat": 42.982727,
    "lon": -85.602835,
    "address": "2680 Leonard Street Northeast",
    "city": "Grand Rapids",
    "state": "MI",
    "zip": "49525",
    "phone": "+1 855 626 6691",
    "website": "https://www.oamichigan.com/oam-now/",
    "sourceUrl": "https://www.openstreetmap.org/node/5572321200",
    "lastVerified": "2026-01-06",
    "nearestResort": "Cannonsburg",
    "nearestResortDist": 7.2
  },
  {
    "id": "osm-3296657434",
    "name": "Heywood Urgent Care",
    "type": "urgent_care",
    "lat": 42.571313,
    "lon": -71.993126,
    "address": "",
    "city": "",
    "state": "NY",
    "zip": "",
    "phone": "",
    "website": "",
    "sourceUrl": "https://www.openstreetmap.org/node/3296657434",
    "lastVerified": "2026-01-06",
    "nearestResort": "Wachusett",
    "nearestResortDist": 7.3
  },
  {
    "id": "osm-3917436291",
    "name": "Cortland Urgent Care",
    "type": "urgent_care",
    "lat": 42.605475,
    "lon": -76.200052,
    "address": "1129 Commons Avenue",
    "city": "Cortland",
    "state": "NY",
    "zip": "13045",
    "phone": "+1-607-756-7200",
    "website": "https://cayugahealth.org/hospital/cortland-urgent-care/",
    "sourceUrl": "https://www.openstreetmap.org/node/3917436291",
    "lastVerified": "2026-01-06",
    "nearestResort": "Greek Peak",
    "nearestResortDist": 7.3
  },
  {
    "id": "osm-8986982542",
    "name": "Urgent Care Medical Clinic, LLC",
    "type": "urgent_care",
    "lat": 61.138308,
    "lon": -149.952715,
    "address": "9150 Jewel Lake Road",
    "city": "Anchorage",
    "state": "AK",
    "zip": "99502",
    "phone": "+1-907-248-8561",
    "website": "https://www.alaskaurgentcaremedicalclinic.com/",
    "sourceUrl": "https://www.openstreetmap.org/node/8986982542",
    "lastVerified": "2026-01-06",
    "nearestResort": "Hilltop",
    "nearestResortDist": 7.4
  },
  {
    "id": "osm-6626904279",
    "name": "Valley Immediate Care Ashland",
    "type": "urgent_care",
    "lat": 42.185147,
    "lon": -122.690693,
    "address": "1401 Siskiyou Boulevard",
    "city": "Ashland",
    "state": "OR",
    "zip": "97520",
    "phone": "",
    "website": "",
    "sourceUrl": "https://www.openstreetmap.org/node/6626904279",
    "lastVerified": "2026-01-06",
    "nearestResort": "Mt Ashland",
    "nearestResortDist": 7.5
  },
  {
    "id": "osm-5603577086",
    "name": "Wayne Primary Care",
    "type": "urgent_care",
    "lat": 40.954588,
    "lon": -74.211162,
    "address": "508 Paterson-Hamburg Turnpike",
    "city": "Wayne",
    "state": "NY",
    "zip": "07470",
    "phone": "",
    "website": "",
    "sourceUrl": "https://www.openstreetmap.org/node/5603577086",
    "lastVerified": "2026-01-06",
    "nearestResort": "Campgaw Mountain",
    "nearestResortDist": 7.5
  },
  {
    "id": "osm-272409804",
    "name": "Valley Medical Group - Primary & Walk-In Care, Wayne",
    "type": "urgent_care",
    "lat": 40.956558,
    "lon": -74.224396,
    "address": "759 Paterson-Hamburg Turnpike",
    "city": "Wayne",
    "state": "NY",
    "zip": "07470",
    "phone": "",
    "website": "",
    "sourceUrl": "https://www.openstreetmap.org/way/272409804",
    "lastVerified": "2026-01-06",
    "nearestResort": "Campgaw Mountain",
    "nearestResortDist": 7.6
  },
  {
    "id": "osm-1446053126",
    "name": "Lifeline Urgent Care",
    "type": "urgent_care",
    "lat": 41.040254,
    "lon": -74.027697,
    "address": "8 Grand Avenue East",
    "city": "Montvale",
    "state": "NY",
    "zip": "07645",
    "phone": "",
    "website": "",
    "sourceUrl": "https://www.openstreetmap.org/way/1446053126",
    "lastVerified": "2026-01-06",
    "nearestResort": "Campgaw Mountain",
    "nearestResortDist": 7.7
  },
  {
    "id": "osm-5603118437",
    "name": "High Mountain Health Urgent & Primary Care",
    "type": "urgent_care",
    "lat": 40.947627,
    "lon": -74.205702,
    "address": "246 Paterson-Hamburg Turnpike",
    "city": "Wayne",
    "state": "NY",
    "zip": "07470",
    "phone": "",
    "website": "",
    "sourceUrl": "https://www.openstreetmap.org/node/5603118437",
    "lastVerified": "2026-01-06",
    "nearestResort": "Campgaw Mountain",
    "nearestResortDist": 7.9
  },
  {
    "id": "osm-218669662",
    "name": "Express Urgent Care",
    "type": "urgent_care",
    "lat": 41.46306,
    "lon": -75.654003,
    "address": "449 Scranton Carbondale Highway",
    "city": "Scranton",
    "state": "NY",
    "zip": "18519",
    "phone": "+1-570-344-6000",
    "website": "https://expressurgentcare.com/",
    "sourceUrl": "https://www.openstreetmap.org/way/218669662",
    "lastVerified": "2026-01-06",
    "nearestResort": "Montage Mountain",
    "nearestResortDist": 8.0
  },
  {
    "id": "osm-218669662",
    "name": "Express Urgent Care",
    "type": "urgent_care",
    "lat": 41.46306,
    "lon": -75.654003,
    "address": "449 Scranton Carbondale Highway",
    "city": "Scranton",
    "state": "PA",
    "zip": "18519",
    "phone": "+1-570-344-6000",
    "website": "https://expressurgentcare.com/",
    "sourceUrl": "https://www.openstreetmap.org/way/218669662",
    "lastVerified": "2026-01-06",
    "nearestResort": "Montage Mountain",
    "nearestResortDist": 8.0
  },
  {
    "id": "osm-8301185879",
    "name": "Geisinger Careworks Urgent Care",
    "type": "urgent_care",
    "lat": 40.806922,
    "lon": -77.893745,
    "address": "1630 North Atherton Street",
    "city": "State College",
    "state": "NY",
    "zip": "16803",
    "phone": "+1-814-238-1279",
    "website": "https://www.geisinger.org/patient-care/find-a-location/urgent-care-wait-times",
    "sourceUrl": "https://www.openstreetmap.org/node/8301185879",
    "lastVerified": "2026-01-06",
    "nearestResort": "Tussey Mountain",
    "nearestResortDist": 8.1
  },
  {
    "id": "osm-8301185879",
    "name": "Geisinger Careworks Urgent Care",
    "type": "urgent_care",
    "lat": 40.806922,
    "lon": -77.893745,
    "address": "1630 North Atherton Street",
    "city": "State College",
    "state": "PA",
    "zip": "16803",
    "phone": "+1-814-238-1279",
    "website": "https://www.geisinger.org/patient-care/find-a-location/urgent-care-wait-times",
    "sourceUrl": "https://www.openstreetmap.org/node/8301185879",
    "lastVerified": "2026-01-06",
    "nearestResort": "Tussey Mountain",
    "nearestResortDist": 8.1
  },
  {
    "id": "osm-838812121",
    "name": "WellNow Urgent Care",
    "type": "urgent_care",
    "lat": 43.033272,
    "lon": -74.343076,
    "address": "332 South Kingsboro Avenue",
    "city": "Gloversville",
    "state": "NY",
    "zip": "12078",
    "phone": "",
    "website": "",
    "sourceUrl": "https://www.openstreetmap.org/way/838812121",
    "lastVerified": "2026-01-06",
    "nearestResort": "Oak Mountain",
    "nearestResortDist": 8.2
  },
  {
    "id": "osm-1019523061",
    "name": "WellNow Urgent Care",
    "type": "urgent_care",
    "lat": 43.068485,
    "lon": -77.438386,
    "address": "18 Courtney Drive",
    "city": "Fairport",
    "state": "NY",
    "zip": "14450",
    "phone": "+1 585-421-7537",
    "website": "https://wellnow.com/locations/fairport/?utm_source=yext&utm_medium=lociqyext&utm_campaign=Fairport,NY-5115",
    "sourceUrl": "https://www.openstreetmap.org/way/1019523061",
    "lastVerified": "2026-01-06",
    "nearestResort": "Brantling",
    "nearestResortDist": 8.2
  },
  {
    "id": "osm-12874425201",
    "name": "WellCare Urgent Care",
    "type": "urgent_care",
    "lat": 42.984094,
    "lon": -85.629087,
    "address": "1618 Leonard Street Northeast",
    "city": "",
    "state": "MI",
    "zip": "49505",
    "phone": "+1 616-217-4470",
    "website": "https://wellcareurgentcare.com/",
    "sourceUrl": "https://www.openstreetmap.org/node/12874425201",
    "lastVerified": "2026-01-06",
    "nearestResort": "Cannonsburg",
    "nearestResortDist": 8.2
  },
  {
    "id": "osm-8785850686",
    "name": "UR Medicine Urgent Care",
    "type": "urgent_care",
    "lat": 43.035579,
    "lon": -77.449467,
    "address": "1669 Pittsford-Victor Road",
    "city": "Victor",
    "state": "NY",
    "zip": "14564",
    "phone": "+1 585-276-0800",
    "website": "https://www.urmc.rochester.edu/locations/urgent-care-perinton",
    "sourceUrl": "https://www.openstreetmap.org/node/8785850686",
    "lastVerified": "2026-01-06",
    "nearestResort": "Brantling",
    "nearestResortDist": 8.4
  },
  {
    "id": "osm-8804362648",
    "name": "Pulse-MD Urgent Care",
    "type": "urgent_care",
    "lat": 41.391467,
    "lon": -73.721949,
    "address": "999 Route 6",
    "city": "Mahopac",
    "state": "NY",
    "zip": "10541",
    "phone": "+18456213100",
    "website": "https://pulse-mdurgentcare.com/",
    "sourceUrl": "https://www.openstreetmap.org/node/8804362648",
    "lastVerified": "2026-01-06",
    "nearestResort": "Thunder Ridge",
    "nearestResortDist": 8.4
  },
  {
    "id": "osm-4940681814",
    "name": "NJ Doctors Urgent Care",
    "type": "urgent_care",
    "lat": 40.971863,
    "lon": -74.28622,
    "address": "",
    "city": "",
    "state": "NY",
    "zip": "",
    "phone": "",
    "website": "",
    "sourceUrl": "https://www.openstreetmap.org/node/4940681814",
    "lastVerified": "2026-01-06",
    "nearestResort": "Campgaw Mountain",
    "nearestResortDist": 8.5
  },
  {
    "id": "osm-9403196722",
    "name": "Pediatric Urgent Care of Rochester",
    "type": "urgent_care",
    "lat": 43.068006,
    "lon": -77.444839,
    "address": "6687 Pittsford Palmyra Road",
    "city": "Fairport",
    "state": "NY",
    "zip": "14450",
    "phone": "+1 585-678-8080",
    "website": "https://www.pediatricurgentcareofrochester.com/",
    "sourceUrl": "https://www.openstreetmap.org/node/9403196722",
    "lastVerified": "2026-01-06",
    "nearestResort": "Brantling",
    "nearestResortDist": 8.5
  },
  {
    "id": "osm-11882075232",
    "name": "Hudson Physicians Urgent Care",
    "type": "urgent_care",
    "lat": 44.969153,
    "lon": -92.718801,
    "address": "2651 Hillcrest Drive",
    "city": "Hudson",
    "state": "MN",
    "zip": "54016",
    "phone": "",
    "website": "",
    "sourceUrl": "https://www.openstreetmap.org/node/11882075232",
    "lastVerified": "2026-01-06",
    "nearestResort": "Afton Alps",
    "nearestResortDist": 8.5
  },
  {
    "id": "osm-12030487426",
    "name": "Compcare Urgent Care",
    "type": "urgent_care",
    "lat": 44.834023,
    "lon": -92.954623,
    "address": "",
    "city": "",
    "state": "MN",
    "zip": "",
    "phone": "",
    "website": "https://compcareclinics.com/location/cottage-grove-minnesota-urgent-care/",
    "sourceUrl": "https://www.openstreetmap.org/node/12030487426",
    "lastVerified": "2026-01-06",
    "nearestResort": "Afton Alps",
    "nearestResortDist": 8.5
  },
  {
    "id": "osm-460193629",
    "name": "Waynesboro Walk-in Clinic",
    "type": "urgent_care",
    "lat": 39.739043,
    "lon": -77.535011,
    "address": "11050 Buchanan Trail East",
    "city": "Waynesboro",
    "state": "PA",
    "zip": "17268",
    "phone": "",
    "website": "",
    "sourceUrl": "https://www.openstreetmap.org/way/460193629",
    "lastVerified": "2026-01-06",
    "nearestResort": "Liberty Mountain",
    "nearestResortDist": 8.6
  },
  {
    "id": "osm-11961146355",
    "name": "UR Medicine Urgent Care",
    "type": "urgent_care",
    "lat": 43.044214,
    "lon": -77.111569,
    "address": "800 West Miller Street",
    "city": "Newark",
    "state": "NY",
    "zip": "14513",
    "phone": "+1 315-226-8900",
    "website": "https://www.urmc.rochester.edu/locations/urgent-care-newark",
    "sourceUrl": "https://www.openstreetmap.org/node/11961146355",
    "lastVerified": "2026-01-06",
    "nearestResort": "Brantling",
    "nearestResortDist": 8.7
  },
  {
    "id": "osm-8788938737",
    "name": "AFC Urgent Care",
    "type": "urgent_care",
    "lat": 41.098181,
    "lon": -74.012516,
    "address": "42 Rockland Plaza",
    "city": "Nanuet",
    "state": "NY",
    "zip": "10954",
    "phone": "+1 845-367-7395",
    "website": "https://www.afcurgentcare.com/nanuet/",
    "sourceUrl": "https://www.openstreetmap.org/node/8788938737",
    "lastVerified": "2026-01-06",
    "nearestResort": "Campgaw Mountain",
    "nearestResortDist": 8.8
  },
  {
    "id": "osm-3739640941",
    "name": "Charlton Urgent Care",
    "type": "urgent_care",
    "lat": 42.973546,
    "lon": -74.030278,
    "address": "",
    "city": "",
    "state": "NY",
    "zip": "",
    "phone": "",
    "website": "",
    "sourceUrl": "https://www.openstreetmap.org/node/3739640941",
    "lastVerified": "2026-01-06",
    "nearestResort": "Maple Ski Ridge",
    "nearestResortDist": 8.9
  },
  {
    "id": "osm-249093337",
    "name": "Rancho Vistoso Urgent Care",
    "type": "urgent_care",
    "lat": 32.443143,
    "lon": -110.935374,
    "address": "13101 North Oracle Road",
    "city": "Oro Valley",
    "state": "AZ",
    "zip": "85739",
    "phone": "+1 520 818 2000",
    "website": "https://www.mytucsonurgentcare.com/rancho-vistoso-urgent-care/",
    "sourceUrl": "https://www.openstreetmap.org/way/249093337",
    "lastVerified": "2026-01-06",
    "nearestResort": "Mt Lemmon",
    "nearestResortDist": 8.9
  },
  {
    "id": "osm-1145540681",
    "name": "Carson Valley Medical Center Urgent Care",
    "type": "urgent_care",
    "lat": 38.963943,
    "lon": -119.778346,
    "address": "897 Ironwood Drive",
    "city": "Minden",
    "state": "NV",
    "zip": "89423",
    "phone": "",
    "website": "",
    "sourceUrl": "https://www.openstreetmap.org/way/1145540681",
    "lastVerified": "2026-01-06",
    "nearestResort": "Heavenly",
    "nearestResortDist": 8.9
  },
  {
    "id": "osm-12875061901",
    "name": "WellCare Urgent Care",
    "type": "urgent_care",
    "lat": 42.91267,
    "lon": -85.508923,
    "address": "6460 28th Street Southeast",
    "city": "",
    "state": "MI",
    "zip": "49546",
    "phone": "",
    "website": "",
    "sourceUrl": "https://www.openstreetmap.org/node/12875061901",
    "lastVerified": "2026-01-06",
    "nearestResort": "Cannonsburg",
    "nearestResortDist": 9.1
  },
  {
    "id": "osm-13034201702",
    "name": "AFC Urgent Care New Britain",
    "type": "urgent_care",
    "lat": 41.670355,
    "lon": -72.778839,
    "address": "135 East Main Street",
    "city": "",
    "state": "NY",
    "zip": "",
    "phone": "",
    "website": "",
    "sourceUrl": "https://www.openstreetmap.org/node/13034201702",
    "lastVerified": "2026-01-06",
    "nearestResort": "Mount Southington",
    "nearestResortDist": 9.2
  },
  {
    "id": "osm-8119234066",
    "name": "ClearChoiceMD Urgent Care",
    "type": "urgent_care",
    "lat": 43.636466,
    "lon": -72.29152,
    "address": "410 Miracle Mile",
    "city": "Lebanon",
    "state": "VT",
    "zip": "03766",
    "phone": "+1-603-276-3261",
    "website": "https://ccmdcenters.com/locations/lebanon-nh",
    "sourceUrl": "https://www.openstreetmap.org/node/8119234066",
    "lastVerified": "2026-01-06",
    "nearestResort": "Whaleback",
    "nearestResortDist": 9.3
  },
  {
    "id": "osm-8119234066",
    "name": "ClearChoiceMD Urgent Care",
    "type": "urgent_care",
    "lat": 43.636466,
    "lon": -72.29152,
    "address": "410 Miracle Mile",
    "city": "Lebanon",
    "state": "NY",
    "zip": "03766",
    "phone": "+1-603-276-3261",
    "website": "https://ccmdcenters.com/locations/lebanon-nh",
    "sourceUrl": "https://www.openstreetmap.org/node/8119234066",
    "lastVerified": "2026-01-06",
    "nearestResort": "Whaleback",
    "nearestResortDist": 9.3
  },
  {
    "id": "osm-8730129388",
    "name": "Healthcare at Home",
    "type": "urgent_care",
    "lat": 40.930628,
    "lon": -74.226806,
    "address": "576 Valley Road",
    "city": "Wayne",
    "state": "NY",
    "zip": "07470",
    "phone": "",
    "website": "",
    "sourceUrl": "https://www.openstreetmap.org/node/8730129388",
    "lastVerified": "2026-01-06",
    "nearestResort": "Campgaw Mountain",
    "nearestResortDist": 9.3
  },
  {
    "id": "osm-12231921922",
    "name": "Tower Health Urgent Care",
    "type": "urgent_care",
    "lat": 40.324705,
    "lon": -75.620385,
    "address": "1050 East Philadelphia Avenue",
    "city": "Gilbertsville",
    "state": "PA",
    "zip": "19525",
    "phone": "+1 484-659-0100",
    "website": "https://towerhealth.org/locations/tower-health-urgent-care-gilbertsville",
    "sourceUrl": "https://www.openstreetmap.org/node/12231921922",
    "lastVerified": "2026-01-06",
    "nearestResort": "Spring Mountain",
    "nearestResortDist": 9.8
  },
  {
    "id": "osm-6199419085",
    "name": "Velocity Urgent Care Clinic",
    "type": "urgent_care",
    "lat": 41.660156,
    "lon": -72.677758,
    "address": "396 Cromwell Avenue",
    "city": "Rocky Hill",
    "state": "NY",
    "zip": "06067",
    "phone": "+1-860-372-4990",
    "website": "http://www.velocityurgentcare.com/",
    "sourceUrl": "https://www.openstreetmap.org/node/6199419085",
    "lastVerified": "2026-01-06",
    "nearestResort": "Powder Ridge",
    "nearestResortDist": 9.9
  },
  {
    "id": "osm-35877041",
    "name": "Penn State Urgent Care",
    "type": "urgent_care",
    "lat": 40.25129,
    "lon": -76.922126,
    "address": "",
    "city": "",
    "state": "PA",
    "zip": "",
    "phone": "",
    "website": "",
    "sourceUrl": "https://www.openstreetmap.org/way/35877041",
    "lastVerified": "2026-01-06",
    "nearestResort": "Roundtop",
    "nearestResortDist": 10.0
  },
  {
    "id": "osm-1254997880",
    "name": "MedExpress Urgernt Care",
    "type": "urgent_care",
    "lat": 40.491308,
    "lon": -79.907847,
    "address": "50 Freeport Road",
    "city": "Pittsburgh",
    "state": "PA",
    "zip": "15215",
    "phone": "+1-412-782-3278",
    "website": "",
    "sourceUrl": "https://www.openstreetmap.org/way/1254997880",
    "lastVerified": "2026-01-06",
    "nearestResort": "Boyce Park",
    "nearestResortDist": 10.0
  },
  {
    "id": "osm-12064003248",
    "name": "Trinity Health Of New England Urgent Care Naugatuck",
    "type": "urgent_care",
    "lat": 41.490423,
    "lon": -73.05321,
    "address": "58 Maple Street",
    "city": "Naugatuck",
    "state": "NY",
    "zip": "06770",
    "phone": "+1 203 723 5636",
    "website": "https://trinityhealthofneurgentcare.com/locations/naugatuck/",
    "sourceUrl": "https://www.openstreetmap.org/node/12064003248",
    "lastVerified": "2026-01-06",
    "nearestResort": "Mount Southington",
    "nearestResortDist": 10.2
  },
  {
    "id": "osm-10931897282",
    "name": "Eastside Medical Urgent Care",
    "type": "urgent_care",
    "lat": 43.131256,
    "lon": -77.437307,
    "address": "",
    "city": "",
    "state": "NY",
    "zip": "",
    "phone": "",
    "website": "",
    "sourceUrl": "https://www.openstreetmap.org/node/10931897282",
    "lastVerified": "2026-01-06",
    "nearestResort": "Brantling",
    "nearestResortDist": 10.3
  },
  {
    "id": "osm-391386424",
    "name": "Premier Urgent Care",
    "type": "urgent_care",
    "lat": 40.131367,
    "lon": -75.450015,
    "address": "",
    "city": "",
    "state": "PA",
    "zip": "",
    "phone": "",
    "website": "",
    "sourceUrl": "https://www.openstreetmap.org/way/391386424",
    "lastVerified": "2026-01-06",
    "nearestResort": "Spring Mountain",
    "nearestResortDist": 10.3
  },
  {
    "id": "osm-8786038411",
    "name": "Rochester Regional Health Urgent Care",
    "type": "urgent_care",
    "lat": 43.132395,
    "lon": -77.440916,
    "address": "2200 Penfield Road",
    "city": "Penfield",
    "state": "NY",
    "zip": "14526",
    "phone": "+1 585-388-5280",
    "website": "https://www.rochesterregional.org/locations/penn-fair-plaza/urgent-care",
    "sourceUrl": "https://www.openstreetmap.org/node/8786038411",
    "lastVerified": "2026-01-06",
    "nearestResort": "Brantling",
    "nearestResortDist": 10.5
  },
  {
    "id": "osm-12912842288",
    "name": "Concentra Urgent Care",
    "type": "urgent_care",
    "lat": 43.006091,
    "lon": -85.689302,
    "address": "",
    "city": "",
    "state": "MI",
    "zip": "",
    "phone": "",
    "website": "",
    "sourceUrl": "https://www.openstreetmap.org/node/12912842288",
    "lastVerified": "2026-01-06",
    "nearestResort": "Cannonsburg",
    "nearestResortDist": 10.5
  },
  {
    "id": "osm-13122726186",
    "name": "Get Well Urgent Care Of Pontiac",
    "type": "urgent_care",
    "lat": 42.619638,
    "lon": -83.319122,
    "address": "20769 Orchard Lake Road",
    "city": "Pontiac",
    "state": "MI",
    "zip": "48341",
    "phone": "+1 248-900-9700",
    "website": "https://getwellurgent.com/",
    "sourceUrl": "https://www.openstreetmap.org/node/13122726186",
    "lastVerified": "2026-01-06",
    "nearestResort": "Pine Knob",
    "nearestResortDist": 10.5
  },
  {
    "id": "osm-5352196148",
    "name": "Careworks Urgent Care",
    "type": "urgent_care",
    "lat": 40.967842,
    "lon": -76.007649,
    "address": "6 Diana Lane",
    "city": "West Hazleton",
    "state": "NY",
    "zip": "18202",
    "phone": "",
    "website": "",
    "sourceUrl": "https://www.openstreetmap.org/node/5352196148",
    "lastVerified": "2026-01-06",
    "nearestResort": "Blue Mountain",
    "nearestResortDist": 10.6
  },
  {
    "id": "osm-593899894",
    "name": "UR Medicine Urgent Care",
    "type": "urgent_care",
    "lat": 43.131171,
    "lon": -77.446307,
    "address": "2134 Penfield Road",
    "city": "Penfield",
    "state": "NY",
    "zip": "14526",
    "phone": "+1 585-276-8280",
    "website": "https://www.urmc.rochester.edu/locations/urgent-care-penfield",
    "sourceUrl": "https://www.openstreetmap.org/way/593899894",
    "lastVerified": "2026-01-06",
    "nearestResort": "Brantling",
    "nearestResortDist": 10.6
  },
  {
    "id": "osm-717778051",
    "name": "Total Access Urgent Care",
    "type": "urgent_care",
    "lat": 38.597208,
    "lon": -90.483416,
    "address": "13861 Manchester Road",
    "city": "Town & Country",
    "state": "IL",
    "zip": "63011",
    "phone": "",
    "website": "",
    "sourceUrl": "https://www.openstreetmap.org/way/717778051",
    "lastVerified": "2026-01-06",
    "nearestResort": "Hidden Valley",
    "nearestResortDist": 10.6
  },
  {
    "id": "osm-12313164289",
    "name": "Concentra",
    "type": "urgent_care",
    "lat": 41.72355,
    "lon": -86.24681,
    "address": "",
    "city": "",
    "state": "MI",
    "zip": "",
    "phone": "",
    "website": "",
    "sourceUrl": "https://www.openstreetmap.org/node/12313164289",
    "lastVerified": "2026-01-06",
    "nearestResort": "Swiss Valley",
    "nearestResortDist": 10.6
  },
  {
    "id": "osm-717778051",
    "name": "Total Access Urgent Care",
    "type": "urgent_care",
    "lat": 38.597208,
    "lon": -90.483416,
    "address": "13861 Manchester Road",
    "city": "Town & Country",
    "state": "MO",
    "zip": "63011",
    "phone": "",
    "website": "",
    "sourceUrl": "https://www.openstreetmap.org/way/717778051",
    "lastVerified": "2026-01-06",
    "nearestResort": "Hidden Valley",
    "nearestResortDist": 10.6
  },
  {
    "id": "osm-5352196148",
    "name": "Careworks Urgent Care",
    "type": "urgent_care",
    "lat": 40.967842,
    "lon": -76.007649,
    "address": "6 Diana Lane",
    "city": "West Hazleton",
    "state": "PA",
    "zip": "18202",
    "phone": "",
    "website": "",
    "sourceUrl": "https://www.openstreetmap.org/node/5352196148",
    "lastVerified": "2026-01-06",
    "nearestResort": "Blue Mountain",
    "nearestResortDist": 10.6
  },
  {
    "id": "osm-696004333",
    "name": "Premier Urgent Care",
    "type": "urgent_care",
    "lat": 41.670763,
    "lon": -72.718,
    "address": "2909 Berlin Turnpike",
    "city": "Newington",
    "state": "NY",
    "zip": "06111",
    "phone": "",
    "website": "",
    "sourceUrl": "https://www.openstreetmap.org/way/696004333",
    "lastVerified": "2026-01-06",
    "nearestResort": "Powder Ridge",
    "nearestResortDist": 10.7
  },
  {
    "id": "osm-7040007635",
    "name": "MedExpress Urgent Care",
    "type": "urgent_care",
    "lat": 42.298765,
    "lon": -85.198374,
    "address": "",
    "city": "",
    "state": "MI",
    "zip": "",
    "phone": "",
    "website": "",
    "sourceUrl": "https://www.openstreetmap.org/node/7040007635",
    "lastVerified": "2026-01-06",
    "nearestResort": "Timber Ridge",
    "nearestResortDist": 10.7
  },
  {
    "id": "osm-5802735972",
    "name": "Advanced Urgent Care",
    "type": "urgent_care",
    "lat": 40.24923,
    "lon": -75.244559,
    "address": "",
    "city": "",
    "state": "PA",
    "zip": "",
    "phone": "",
    "website": "",
    "sourceUrl": "https://www.openstreetmap.org/node/5802735972",
    "lastVerified": "2026-01-06",
    "nearestResort": "Spring Mountain",
    "nearestResortDist": 10.7
  },
  {
    "id": "osm-11961146356",
    "name": "UR Medicine Urgent Care",
    "type": "urgent_care",
    "lat": 42.877214,
    "lon": -77.271631,
    "address": "699 South Main Street",
    "city": "Canandaigua",
    "state": "NY",
    "zip": "14424",
    "phone": "+1 585-978-8240",
    "website": "https://www.urmc.rochester.edu/locations/urgent-care-canandaigua",
    "sourceUrl": "https://www.openstreetmap.org/node/11961146356",
    "lastVerified": "2026-01-06",
    "nearestResort": "Brantling",
    "nearestResortDist": 10.8
  },
  {
    "id": "osm-6023190789",
    "name": "Healthy Urgent Care",
    "type": "urgent_care",
    "lat": 42.514129,
    "lon": -83.615202,
    "address": "30488 Milford Road",
    "city": "New Hudson",
    "state": "MI",
    "zip": "48165",
    "phone": "",
    "website": "",
    "sourceUrl": "https://www.openstreetmap.org/node/6023190789",
    "lastVerified": "2026-01-06",
    "nearestResort": "Mt Brighton",
    "nearestResortDist": 10.8
  },
  {
    "id": "osm-12038206069",
    "name": "New Richmond Urgent Care",
    "type": "urgent_care",
    "lat": 45.127787,
    "lon": -92.538421,
    "address": "525 North Knowles Avenue",
    "city": "New Richmond",
    "state": "MN",
    "zip": "54017",
    "phone": "",
    "website": "https://hudsonphysicians.com/service/new-richmond-urgent-care/",
    "sourceUrl": "https://www.openstreetmap.org/node/12038206069",
    "lastVerified": "2026-01-06",
    "nearestResort": "Trollhaugen",
    "nearestResortDist": 10.8
  },
  {
    "id": "osm-1464424702",
    "name": "WellNow Urgent Care",
    "type": "urgent_care",
    "lat": 43.093099,
    "lon": -75.306368,
    "address": "4754 Commercial Drive",
    "city": "New Hartford",
    "state": "NY",
    "zip": "13413",
    "phone": "",
    "website": "",
    "sourceUrl": "https://www.openstreetmap.org/way/1464424702",
    "lastVerified": "2026-01-06",
    "nearestResort": "Woods Valley",
    "nearestResortDist": 10.9
  },
  {
    "id": "osm-7461980789",
    "name": "Walkin Medical Urgent Care",
    "type": "urgent_care",
    "lat": 41.139501,
    "lon": -73.989703,
    "address": "",
    "city": "",
    "state": "NY",
    "zip": "",
    "phone": "",
    "website": "",
    "sourceUrl": "https://www.openstreetmap.org/node/7461980789",
    "lastVerified": "2026-01-06",
    "nearestResort": "Campgaw Mountain",
    "nearestResortDist": 11.0
  },
  {
    "id": "osm-75312765",
    "name": "PhysicianOne Urgent Care",
    "type": "urgent_care",
    "lat": 41.29013,
    "lon": -73.495031,
    "address": "10 South Street",
    "city": "Ridgefield",
    "state": "NY",
    "zip": "06877",
    "phone": "",
    "website": "",
    "sourceUrl": "https://www.openstreetmap.org/way/75312765",
    "lastVerified": "2026-01-06",
    "nearestResort": "Thunder Ridge",
    "nearestResortDist": 11.0
  },
  {
    "id": "osm-39419520",
    "name": "St. Anthony's Urgent Care Center",
    "type": "urgent_care",
    "lat": 38.511345,
    "lon": -90.445834,
    "address": "714 Gravois Road",
    "city": "Fenton",
    "state": "IL",
    "zip": "63026",
    "phone": "+16363266100",
    "website": "http://www.stanthonysmedcenter.com/healthcareServ/urgentCare/index.asp",
    "sourceUrl": "https://www.openstreetmap.org/way/39419520",
    "lastVerified": "2026-01-06",
    "nearestResort": "Hidden Valley",
    "nearestResortDist": 11.0
  },
  {
    "id": "osm-39419520",
    "name": "St. Anthony's Urgent Care Center",
    "type": "urgent_care",
    "lat": 38.511345,
    "lon": -90.445834,
    "address": "714 Gravois Road",
    "city": "Fenton",
    "state": "MO",
    "zip": "63026",
    "phone": "+16363266100",
    "website": "http://www.stanthonysmedcenter.com/healthcareServ/urgentCare/index.asp",
    "sourceUrl": "https://www.openstreetmap.org/way/39419520",
    "lastVerified": "2026-01-06",
    "nearestResort": "Hidden Valley",
    "nearestResortDist": 11.0
  },
  {
    "id": "osm-3197308473",
    "name": "MedExpress",
    "type": "urgent_care",
    "lat": 40.456183,
    "lon": -79.94193,
    "address": "5201 Baum Boulevard",
    "city": "Pittsburgh",
    "state": "PA",
    "zip": "15224",
    "phone": "+1-412-687-3627",
    "website": "",
    "sourceUrl": "https://www.openstreetmap.org/node/3197308473",
    "lastVerified": "2026-01-06",
    "nearestResort": "Boyce Park",
    "nearestResortDist": 11.1
  },
  {
    "id": "osm-355809673",
    "name": "Midwest Minor Medical Urgent Care",
    "type": "urgent_care",
    "lat": 41.263749,
    "lon": -96.046904,
    "address": "8610 West Dodge Road",
    "city": "Omaha",
    "state": "IA",
    "zip": "68114",
    "phone": "+1 402 827 6511",
    "website": "https://www.midwestminormedical.com/",
    "sourceUrl": "https://www.openstreetmap.org/way/355809673",
    "lastVerified": "2026-01-06",
    "nearestResort": "Mt Crescent",
    "nearestResortDist": 11.2
  },
  {
    "id": "osm-6190617311",
    "name": "AFC Urgent Care",
    "type": "urgent_care",
    "lat": 40.135817,
    "lon": -75.541746,
    "address": "265 Schuylkill Road",
    "city": "",
    "state": "PA",
    "zip": "",
    "phone": "",
    "website": "",
    "sourceUrl": "https://www.openstreetmap.org/node/6190617311",
    "lastVerified": "2026-01-06",
    "nearestResort": "Spring Mountain",
    "nearestResortDist": 11.2
  },
  {
    "id": "osm-12213544147",
    "name": "Mercy GoHealth",
    "type": "urgent_care",
    "lat": 38.507308,
    "lon": -90.441816,
    "address": "",
    "city": "",
    "state": "IL",
    "zip": "",
    "phone": "",
    "website": "",
    "sourceUrl": "https://www.openstreetmap.org/node/12213544147",
    "lastVerified": "2026-01-06",
    "nearestResort": "Hidden Valley",
    "nearestResortDist": 11.3
  },
  {
    "id": "osm-12213544147",
    "name": "Mercy GoHealth",
    "type": "urgent_care",
    "lat": 38.507308,
    "lon": -90.441816,
    "address": "",
    "city": "",
    "state": "MO",
    "zip": "",
    "phone": "",
    "website": "",
    "sourceUrl": "https://www.openstreetmap.org/node/12213544147",
    "lastVerified": "2026-01-06",
    "nearestResort": "Hidden Valley",
    "nearestResortDist": 11.3
  },
  {
    "id": "osm-9795934815",
    "name": "Vybe Urgent Care",
    "type": "urgent_care",
    "lat": 40.165828,
    "lon": -75.289092,
    "address": "920 DeKalb Pike",
    "city": "Blue Bell",
    "state": "PA",
    "zip": "19422",
    "phone": "+12672891770",
    "website": "https://www.vybe.care/locations/blue-bell/",
    "sourceUrl": "https://www.openstreetmap.org/node/9795934815",
    "lastVerified": "2026-01-06",
    "nearestResort": "Spring Mountain",
    "nearestResortDist": 11.3
  },
  {
    "id": "osm-11552046850",
    "name": "Essentia Urgent Care",
    "type": "urgent_care",
    "lat": 46.70232,
    "lon": -92.458022,
    "address": "",
    "city": "",
    "state": "MN",
    "zip": "",
    "phone": "",
    "website": "",
    "sourceUrl": "https://www.openstreetmap.org/node/11552046850",
    "lastVerified": "2026-01-06",
    "nearestResort": "Spirit Mountain",
    "nearestResortDist": 11.4
  },
  {
    "id": "osm-936479550",
    "name": "ConvenientMD Urgent Care",
    "type": "urgent_care",
    "lat": 44.307091,
    "lon": -71.801363,
    "address": "",
    "city": "",
    "state": "VT",
    "zip": "",
    "phone": "",
    "website": "",
    "sourceUrl": "https://www.openstreetmap.org/way/936479550",
    "lastVerified": "2026-01-06",
    "nearestResort": "Cannon Mountain",
    "nearestResortDist": 11.6
  },
  {
    "id": "osm-1219543439",
    "name": "Walk-In Family Care",
    "type": "urgent_care",
    "lat": 40.892533,
    "lon": -74.157723,
    "address": "",
    "city": "",
    "state": "NY",
    "zip": "",
    "phone": "",
    "website": "",
    "sourceUrl": "https://www.openstreetmap.org/way/1219543439",
    "lastVerified": "2026-01-06",
    "nearestResort": "Campgaw Mountain",
    "nearestResortDist": 11.6
  },
  {
    "id": "osm-8140203639",
    "name": "MedExpress",
    "type": "urgent_care",
    "lat": 46.71132,
    "lon": -92.4628,
    "address": "707 Highway 33 South",
    "city": "Cloquet",
    "state": "MN",
    "zip": "55720",
    "phone": "+1-218-879-7903",
    "website": "https://www.medexpress.com/search-result-answers.html?query=55720&referrerPageUrl=https%3A%2F%2Fwww.medexpress.com%2Flocation%2Fmn%2Fcloquet%2Fcqe%2F",
    "sourceUrl": "https://www.openstreetmap.org/node/8140203639",
    "lastVerified": "2026-01-06",
    "nearestResort": "Spirit Mountain",
    "nearestResortDist": 11.6
  },
  {
    "id": "osm-12478809049",
    "name": "Yale New Haven Urgent Care",
    "type": "urgent_care",
    "lat": 41.342573,
    "lon": -73.756777,
    "address": "",
    "city": "",
    "state": "NY",
    "zip": "",
    "phone": "",
    "website": "",
    "sourceUrl": "https://www.openstreetmap.org/node/12478809049",
    "lastVerified": "2026-01-06",
    "nearestResort": "Thunder Ridge",
    "nearestResortDist": 11.7
  },
  {
    "id": "osm-13078281925",
    "name": "Hackensack Meridian Urgent Care - Lincoln Park",
    "type": "urgent_care",
    "lat": 40.921737,
    "lon": -74.30294,
    "address": "31 Boonton Turnpike",
    "city": "Lincoln Park",
    "state": "NY",
    "zip": "07035",
    "phone": "",
    "website": "",
    "sourceUrl": "https://www.openstreetmap.org/node/13078281925",
    "lastVerified": "2026-01-06",
    "nearestResort": "Campgaw Mountain",
    "nearestResortDist": 11.7
  },
  {
    "id": "osm-5556814208",
    "name": "La Paloma Urgent Care",
    "type": "urgent_care",
    "lat": 32.309902,
    "lon": -110.90831,
    "address": "4001 East Sunrise Drive",
    "city": "Tucson",
    "state": "AZ",
    "zip": "85718",
    "phone": "+1 520 209 7000",
    "website": "https://www.mytucsonurgentcare.com/la-paloma-urgent-care-tucson/",
    "sourceUrl": "https://www.openstreetmap.org/node/5556814208",
    "lastVerified": "2026-01-06",
    "nearestResort": "Mt Lemmon",
    "nearestResortDist": 11.7
  },
  {
    "id": "osm-836861971",
    "name": "ClearChoiceMD Urgent Care",
    "type": "urgent_care",
    "lat": 43.457163,
    "lon": -71.562671,
    "address": "",
    "city": "",
    "state": "VT",
    "zip": "",
    "phone": "",
    "website": "",
    "sourceUrl": "https://www.openstreetmap.org/way/836861971",
    "lastVerified": "2026-01-06",
    "nearestResort": "Gunstock",
    "nearestResortDist": 11.8
  },
  {
    "id": "osm-5697442426",
    "name": "Kinder Pediatric Urgent Care",
    "type": "urgent_care",
    "lat": 40.895803,
    "lon": -74.234295,
    "address": "",
    "city": "",
    "state": "NY",
    "zip": "",
    "phone": "",
    "website": "",
    "sourceUrl": "https://www.openstreetmap.org/node/5697442426",
    "lastVerified": "2026-01-06",
    "nearestResort": "Campgaw Mountain",
    "nearestResortDist": 11.8
  },
  {
    "id": "osm-798433986",
    "name": "Milford Urgent Care",
    "type": "urgent_care",
    "lat": 42.591192,
    "lon": -83.598825,
    "address": "414 Union Street",
    "city": "Milford",
    "state": "MI",
    "zip": "48381",
    "phone": "+1-248-717-0010",
    "website": "http://www.urgentcaremilford.com/",
    "sourceUrl": "https://www.openstreetmap.org/way/798433986",
    "lastVerified": "2026-01-06",
    "nearestResort": "Mt Brighton",
    "nearestResortDist": 11.8
  },
  {
    "id": "osm-12257460466",
    "name": "Atlantic Urgent Care",
    "type": "urgent_care",
    "lat": 41.066955,
    "lon": -74.653387,
    "address": "",
    "city": "",
    "state": "NY",
    "zip": "",
    "phone": "",
    "website": "",
    "sourceUrl": "https://www.openstreetmap.org/node/12257460466",
    "lastVerified": "2026-01-06",
    "nearestResort": "Mountain Creek",
    "nearestResortDist": 11.9
  },
  {
    "id": "osm-324872926",
    "name": "Mountain Medical Urgent Care",
    "type": "urgent_care",
    "lat": 44.336672,
    "lon": -74.139399,
    "address": "31 Old Lake Colby Road",
    "city": "Saranac Lake",
    "state": "NY",
    "zip": "12983",
    "phone": "",
    "website": "",
    "sourceUrl": "https://www.openstreetmap.org/way/324872926",
    "lastVerified": "2026-01-06",
    "nearestResort": "Whiteface",
    "nearestResortDist": 11.9
  },
  {
    "id": "osm-896322701",
    "name": "Geisinger urgent care",
    "type": "urgent_care",
    "lat": 40.913104,
    "lon": -77.738244,
    "address": "182 Buckaroo Lane",
    "city": "Bellefonte",
    "state": "NY",
    "zip": "16823",
    "phone": "",
    "website": "",
    "sourceUrl": "https://www.openstreetmap.org/way/896322701",
    "lastVerified": "2026-01-06",
    "nearestResort": "Tussey Mountain",
    "nearestResortDist": 11.9
  },
  {
    "id": "osm-653940180",
    "name": "1st Choice Urgent Care",
    "type": "urgent_care",
    "lat": 42.605473,
    "lon": -83.29636,
    "address": "2274 South Telegraph Road",
    "city": "Bloomfield Township",
    "state": "MI",
    "zip": "48302",
    "phone": "",
    "website": "",
    "sourceUrl": "https://www.openstreetmap.org/way/653940180",
    "lastVerified": "2026-01-06",
    "nearestResort": "Pine Knob",
    "nearestResortDist": 11.9
  },
  {
    "id": "osm-32888543",
    "name": "Concentra Urgent Care",
    "type": "urgent_care",
    "lat": 39.467758,
    "lon": -119.78427,
    "address": "6410 South Virginia Street",
    "city": "Reno",
    "state": "NV",
    "zip": "89511",
    "phone": "",
    "website": "",
    "sourceUrl": "https://www.openstreetmap.org/way/32888543",
    "lastVerified": "2026-01-06",
    "nearestResort": "Mt Rose",
    "nearestResortDist": 11.9
  },
  {
    "id": "osm-896322701",
    "name": "Geisinger urgent care",
    "type": "urgent_care",
    "lat": 40.913104,
    "lon": -77.738244,
    "address": "182 Buckaroo Lane",
    "city": "Bellefonte",
    "state": "PA",
    "zip": "16823",
    "phone": "",
    "website": "",
    "sourceUrl": "https://www.openstreetmap.org/way/896322701",
    "lastVerified": "2026-01-06",
    "nearestResort": "Tussey Mountain",
    "nearestResortDist": 11.9
  },
  {
    "id": "osm-6240672177",
    "name": "MedExpress",
    "type": "urgent_care",
    "lat": 40.605457,
    "lon": -79.756248,
    "address": "",
    "city": "",
    "state": "NY",
    "zip": "",
    "phone": "",
    "website": "",
    "sourceUrl": "https://www.openstreetmap.org/node/6240672177",
    "lastVerified": "2026-01-06",
    "nearestResort": "Boyce Park",
    "nearestResortDist": 12.0
  },
  {
    "id": "osm-6240672177",
    "name": "MedExpress",
    "type": "urgent_care",
    "lat": 40.605457,
    "lon": -79.756248,
    "address": "",
    "city": "",
    "state": "PA",
    "zip": "",
    "phone": "",
    "website": "",
    "sourceUrl": "https://www.openstreetmap.org/node/6240672177",
    "lastVerified": "2026-01-06",
    "nearestResort": "Boyce Park",
    "nearestResortDist": 12.0
  },
  {
    "id": "osm-11768230915",
    "name": "NextCare Urgent Care Clinic",
    "type": "urgent_care",
    "lat": 41.175961,
    "lon": -96.025214,
    "address": "8419 South 73rd Avenue Plaza",
    "city": "Papillion",
    "state": "IA",
    "zip": "68046",
    "phone": "",
    "website": "",
    "sourceUrl": "https://www.openstreetmap.org/node/11768230915",
    "lastVerified": "2026-01-06",
    "nearestResort": "Mt Crescent",
    "nearestResortDist": 12.4
  },
  {
    "id": "osm-878764032",
    "name": "Tower Health Urgent Care",
    "type": "urgent_care",
    "lat": 40.208996,
    "lon": -75.65854,
    "address": "16 Glocker Way",
    "city": "Pottstown",
    "state": "PA",
    "zip": "19465",
    "phone": "+1 484-659-1500",
    "website": "https://towerhealth.org/locations/tower-health-urgent-care-north-coventry",
    "sourceUrl": "https://www.openstreetmap.org/way/878764032",
    "lastVerified": "2026-01-06",
    "nearestResort": "Spring Mountain",
    "nearestResortDist": 12.4
  },
  {
    "id": "osm-9138728840",
    "name": "Concentra",
    "type": "urgent_care",
    "lat": 43.192046,
    "lon": -71.53235,
    "address": "",
    "city": "",
    "state": "VT",
    "zip": "",
    "phone": "",
    "website": "",
    "sourceUrl": "https://www.openstreetmap.org/node/9138728840",
    "lastVerified": "2026-01-06",
    "nearestResort": "Pats Peak",
    "nearestResortDist": 12.5
  },
  {
    "id": "osm-2989725448",
    "name": "A Walk-In Medical Center",
    "type": "urgent_care",
    "lat": 41.708705,
    "lon": -72.736711,
    "address": "365 Willard Avenue",
    "city": "Newington",
    "state": "NY",
    "zip": "06111",
    "phone": "+1-860-436-3226",
    "website": "https://awalkinclinic.com/",
    "sourceUrl": "https://www.openstreetmap.org/node/2989725448",
    "lastVerified": "2026-01-06",
    "nearestResort": "Mount Southington",
    "nearestResortDist": 12.6
  },
  {
    "id": "osm-12236608855",
    "name": "Urgent Care",
    "type": "urgent_care",
    "lat": 42.697666,
    "lon": -73.893108,
    "address": "",
    "city": "",
    "state": "NY",
    "zip": "",
    "phone": "",
    "website": "",
    "sourceUrl": "https://www.openstreetmap.org/node/12236608855",
    "lastVerified": "2026-01-06",
    "nearestResort": "Maple Ski Ridge",
    "nearestResortDist": 12.6
  },
  {
    "id": "osm-5039537817",
    "name": "Aurora Urgent Care",
    "type": "urgent_care",
    "lat": 42.720418,
    "lon": -87.888864,
    "address": "",
    "city": "",
    "state": "MI",
    "zip": "",
    "phone": "",
    "website": "",
    "sourceUrl": "https://www.openstreetmap.org/node/5039537817",
    "lastVerified": "2026-01-06",
    "nearestResort": "Little Switzerland",
    "nearestResortDist": 12.6
  },
  {
    "id": "osm-12437448054",
    "name": "Bloomfield Urgent Medical Care",
    "type": "urgent_care",
    "lat": 42.605355,
    "lon": -83.26725,
    "address": "43141 Woodward Avenue",
    "city": "Bloomfield Hills",
    "state": "MI",
    "zip": "48302",
    "phone": "",
    "website": "",
    "sourceUrl": "https://www.openstreetmap.org/node/12437448054",
    "lastVerified": "2026-01-06",
    "nearestResort": "Pine Knob",
    "nearestResortDist": 12.7
  },
  {
    "id": "osm-1426903555",
    "name": "ProHealth Urgent Care Waterford",
    "type": "urgent_care",
    "lat": 42.772994,
    "lon": -88.195853,
    "address": "808 Cornerstone Court",
    "city": "Waterford",
    "state": "MI",
    "zip": "53185",
    "phone": "+1-262-928-1977",
    "website": "https://www.prohealthcare.org/locations/profile/urgent-care-waterford/",
    "sourceUrl": "https://www.openstreetmap.org/way/1426903555",
    "lastVerified": "2026-01-06",
    "nearestResort": "Little Switzerland",
    "nearestResortDist": 12.7
  },
  {
    "id": "osm-97253730",
    "name": "HealthPartners Nokomis Urgent Care Clinic",
    "type": "urgent_care",
    "lat": 44.916796,
    "lon": -93.262953,
    "address": "4730 Chicago Avenue South",
    "city": "Minneapolis",
    "state": "MN",
    "zip": "55407",
    "phone": "",
    "website": "",
    "sourceUrl": "https://www.openstreetmap.org/way/97253730",
    "lastVerified": "2026-01-06",
    "nearestResort": "Buck Hill",
    "nearestResortDist": 12.7
  },
  {
    "id": "osm-1014437552",
    "name": "Wellspan Urgent Care",
    "type": "urgent_care",
    "lat": 39.967716,
    "lon": -76.775165,
    "address": "717 Town Center Drive",
    "city": "York",
    "state": "PA",
    "zip": "17408",
    "phone": "+1 717-356-4240",
    "website": "https://www.wellspan.org/locations/wellspan-urgent-care-west-york-loc0000169703",
    "sourceUrl": "https://www.openstreetmap.org/way/1014437552",
    "lastVerified": "2026-01-06",
    "nearestResort": "Roundtop",
    "nearestResortDist": 12.8
  },
  {
    "id": "osm-3317302079",
    "name": "WellNow Urgent Care",
    "type": "urgent_care",
    "lat": 43.027917,
    "lon": -76.045958,
    "address": "6870 East Genesee Street",
    "city": "Fayetteville",
    "state": "NY",
    "zip": "13066",
    "phone": "+1-315-679-4367",
    "website": "https://www.wellnow.com/urgent-care-centers/new-york/fayetteville/6870-east-genesee-street-13066",
    "sourceUrl": "https://www.openstreetmap.org/node/3317302079",
    "lastVerified": "2026-01-06",
    "nearestResort": "Toggenburg",
    "nearestResortDist": 12.9
  },
  {
    "id": "osm-13011814167",
    "name": "PM Pediatrics Urgent Care",
    "type": "urgent_care",
    "lat": 41.724354,
    "lon": -72.757263,
    "address": "1459 New Britain Avenue",
    "city": "West Hartford",
    "state": "NY",
    "zip": "06110",
    "phone": "",
    "website": "",
    "sourceUrl": "https://www.openstreetmap.org/node/13011814167",
    "lastVerified": "2026-01-06",
    "nearestResort": "Mount Southington",
    "nearestResortDist": 12.9
  },
  {
    "id": "osm-13186813537",
    "name": "Priority Urgent Care",
    "type": "urgent_care",
    "lat": 41.756338,
    "lon": -72.885487,
    "address": "",
    "city": "",
    "state": "NY",
    "zip": "",
    "phone": "",
    "website": "",
    "sourceUrl": "https://www.openstreetmap.org/node/13186813537",
    "lastVerified": "2026-01-06",
    "nearestResort": "Ski Sundown",
    "nearestResortDist": 12.9
  },
  {
    "id": "osm-1541844063",
    "name": "Urgent Care - Wilton Medical Arts",
    "type": "urgent_care",
    "lat": 43.102622,
    "lon": -73.745293,
    "address": "",
    "city": "",
    "state": "NY",
    "zip": "",
    "phone": "",
    "website": "",
    "sourceUrl": "https://www.openstreetmap.org/node/1541844063",
    "lastVerified": "2026-01-06",
    "nearestResort": "Willard Mountain",
    "nearestResortDist": 13.0
  },
  {
    "id": "osm-1346100817",
    "name": "AM/PM Walk In Urgent Care Center",
    "type": "urgent_care",
    "lat": 40.92713,
    "lon": -73.995991,
    "address": "19 South Washington Avenue",
    "city": "Bergenfield",
    "state": "NY",
    "zip": "07621",
    "phone": "",
    "website": "https://www.ampmwalkinurgentcare.com/our-locations/bergenfield-urgent-care/",
    "sourceUrl": "https://www.openstreetmap.org/way/1346100817",
    "lastVerified": "2026-01-06",
    "nearestResort": "Campgaw Mountain",
    "nearestResortDist": 13.0
  },
  {
    "id": "osm-9576793822",
    "name": "Southern Arizona Urgent Care",
    "type": "urgent_care",
    "lat": 32.348027,
    "lon": -110.976491,
    "address": "7725 North Oracle Road",
    "city": "Oro Valley",
    "state": "AZ",
    "zip": "85704",
    "phone": "+1-520-544-2273",
    "website": "https://carbonhealth.com/locations/tucson-az-oracle-sauc",
    "sourceUrl": "https://www.openstreetmap.org/node/9576793822",
    "lastVerified": "2026-01-06",
    "nearestResort": "Mt Lemmon",
    "nearestResortDist": 13.0
  },
  {
    "id": "osm-12438137778",
    "name": "Beaumont Urgent Care",
    "type": "urgent_care",
    "lat": 42.601774,
    "lon": -83.263301,
    "address": "42757 Woodward Avenue",
    "city": "Bloomfield Hills",
    "state": "MI",
    "zip": "48304",
    "phone": "",
    "website": "",
    "sourceUrl": "https://www.openstreetmap.org/node/12438137778",
    "lastVerified": "2026-01-06",
    "nearestResort": "Pine Knob",
    "nearestResortDist": 13.0
  },
  {
    "id": "osm-8795804379",
    "name": "UR Medicine Urgent Care",
    "type": "urgent_care",
    "lat": 42.355546,
    "lon": -77.663556,
    "address": "7309 Seneca Road North",
    "city": "Hornell",
    "state": "NY",
    "zip": "14843",
    "phone": "+1 607-385-3800",
    "website": "https://www.urmc.rochester.edu/locations/urgent-care-hornell",
    "sourceUrl": "https://www.openstreetmap.org/node/8795804379",
    "lastVerified": "2026-01-06",
    "nearestResort": "Swain",
    "nearestResortDist": 13.2
  },
  {
    "id": "osm-12236664991",
    "name": "Urgent Care",
    "type": "urgent_care",
    "lat": 42.695209,
    "lon": -73.878811,
    "address": "",
    "city": "",
    "state": "NY",
    "zip": "",
    "phone": "",
    "website": "",
    "sourceUrl": "https://www.openstreetmap.org/node/12236664991",
    "lastVerified": "2026-01-06",
    "nearestResort": "Maple Ski Ridge",
    "nearestResortDist": 13.2
  },
  {
    "id": "osm-13084416920",
    "name": "Express Urgent Care",
    "type": "urgent_care",
    "lat": 41.2583,
    "lon": -75.822623,
    "address": "1130 PA 315",
    "city": "Wilkes-Barre",
    "state": "NY",
    "zip": "18702",
    "phone": "+1-570-822-3300",
    "website": "https://expressurgentcare.com/",
    "sourceUrl": "https://www.openstreetmap.org/node/13084416920",
    "lastVerified": "2026-01-06",
    "nearestResort": "Montage Mountain",
    "nearestResortDist": 13.2
  },
  {
    "id": "osm-13084416920",
    "name": "Express Urgent Care",
    "type": "urgent_care",
    "lat": 41.2583,
    "lon": -75.822623,
    "address": "1130 PA 315",
    "city": "Wilkes-Barre",
    "state": "PA",
    "zip": "18702",
    "phone": "+1-570-822-3300",
    "website": "https://expressurgentcare.com/",
    "sourceUrl": "https://www.openstreetmap.org/node/13084416920",
    "lastVerified": "2026-01-06",
    "nearestResort": "Montage Mountain",
    "nearestResortDist": 13.2
  },
  {
    "id": "osm-8786475607",
    "name": "Urgent Care Omaha",
    "type": "urgent_care",
    "lat": 41.232888,
    "lon": -96.081131,
    "address": "",
    "city": "",
    "state": "IA",
    "zip": "",
    "phone": "",
    "website": "",
    "sourceUrl": "https://www.openstreetmap.org/node/8786475607",
    "lastVerified": "2026-01-06",
    "nearestResort": "Mt Crescent",
    "nearestResortDist": 13.3
  },
  {
    "id": "osm-375376987",
    "name": "Aurora Urgent Care",
    "type": "urgent_care",
    "lat": 42.699566,
    "lon": -87.853038,
    "address": "2621 South Green Bay Road",
    "city": "Mount Pleasant",
    "state": "MI",
    "zip": "",
    "phone": "",
    "website": "",
    "sourceUrl": "https://www.openstreetmap.org/way/375376987",
    "lastVerified": "2026-01-06",
    "nearestResort": "Little Switzerland",
    "nearestResortDist": 13.3
  },
  {
    "id": "osm-4711001657",
    "name": "MedExpress",
    "type": "urgent_care",
    "lat": 40.328835,
    "lon": -79.94457,
    "address": "695 Clairton Boulevard",
    "city": "",
    "state": "PA",
    "zip": "",
    "phone": "",
    "website": "",
    "sourceUrl": "https://www.openstreetmap.org/node/4711001657",
    "lastVerified": "2026-01-06",
    "nearestResort": "Boyce Park",
    "nearestResortDist": 13.3
  },
  {
    "id": "osm-5654488163",
    "name": "WellNow Urgent Care",
    "type": "urgent_care",
    "lat": 42.796399,
    "lon": -78.750607,
    "address": "3245 Southwestern Boulevard",
    "city": "Orchard Park",
    "state": "NY",
    "zip": "14127",
    "phone": "",
    "website": "",
    "sourceUrl": "https://www.openstreetmap.org/node/5654488163",
    "lastVerified": "2026-01-06",
    "nearestResort": "Kissing Bridge",
    "nearestResortDist": 13.4
  },
  {
    "id": "osm-157634806",
    "name": "Northeast Medical Urgent Care",
    "type": "urgent_care",
    "lat": 43.039661,
    "lon": -76.023107,
    "address": "Medical Center Drive",
    "city": "Fayetteville",
    "state": "NY",
    "zip": "13066",
    "phone": "",
    "website": "http://www.northmedicalpc.com/urgentcare.htm",
    "sourceUrl": "https://www.openstreetmap.org/way/157634806",
    "lastVerified": "2026-01-06",
    "nearestResort": "Toggenburg",
    "nearestResortDist": 13.4
  },
  {
    "id": "osm-59036158",
    "name": "MedExpress Urgent Care",
    "type": "urgent_care",
    "lat": 44.862928,
    "lon": -93.485965,
    "address": "",
    "city": "",
    "state": "MN",
    "zip": "",
    "phone": "",
    "website": "",
    "sourceUrl": "https://www.openstreetmap.org/way/59036158",
    "lastVerified": "2026-01-06",
    "nearestResort": "Buck Hill",
    "nearestResortDist": 13.4
  },
  {
    "id": "osm-13335219402",
    "name": "Concentra Urgent Care",
    "type": "urgent_care",
    "lat": 40.279337,
    "lon": -76.817533,
    "address": "4200 Union Deposit Road",
    "city": "Harrisburg",
    "state": "PA",
    "zip": "17111",
    "phone": "+17175586708",
    "website": "",
    "sourceUrl": "https://www.openstreetmap.org/node/13335219402",
    "lastVerified": "2026-01-06",
    "nearestResort": "Roundtop",
    "nearestResortDist": 13.4
  },
  {
    "id": "osm-12020291143",
    "name": "Live Urgent Care",
    "type": "urgent_care",
    "lat": 40.093576,
    "lon": -75.368227,
    "address": "107 Town Center Road",
    "city": "King of Prussia",
    "state": "PA",
    "zip": "19406",
    "phone": "+1 484-750-5212",
    "website": "https://liveurgentcare.com/locations/kingofprussia/",
    "sourceUrl": "https://www.openstreetmap.org/node/12020291143",
    "lastVerified": "2026-01-06",
    "nearestResort": "Spring Mountain",
    "nearestResortDist": 13.5
  },
  {
    "id": "osm-6247734710",
    "name": "Urgent Care",
    "type": "urgent_care",
    "lat": 44.455657,
    "lon": -73.163122,
    "address": "150 Kennedy Drive",
    "city": "South Burlington",
    "state": "VT",
    "zip": "05403",
    "phone": "",
    "website": "",
    "sourceUrl": "https://www.openstreetmap.org/node/6247734710",
    "lastVerified": "2026-01-06",
    "nearestResort": "Cochran's",
    "nearestResortDist": 13.6
  },
  {
    "id": "osm-6247734710",
    "name": "Urgent Care",
    "type": "urgent_care",
    "lat": 44.455657,
    "lon": -73.163122,
    "address": "150 Kennedy Drive",
    "city": "South Burlington",
    "state": "NY",
    "zip": "05403",
    "phone": "",
    "website": "",
    "sourceUrl": "https://www.openstreetmap.org/node/6247734710",
    "lastVerified": "2026-01-06",
    "nearestResort": "Cochran's",
    "nearestResortDist": 13.6
  },
  {
    "id": "osm-8786052964",
    "name": "UR Medicine Urgent Care",
    "type": "urgent_care",
    "lat": 43.101131,
    "lon": -77.535815,
    "address": "3400 Monroe Avenue",
    "city": "Rochester",
    "state": "NY",
    "zip": "14618",
    "phone": "+1 585-203-1055",
    "website": "https://www.urmc.rochester.edu/locations/urgent-care-pittsford",
    "sourceUrl": "https://www.openstreetmap.org/node/8786052964",
    "lastVerified": "2026-01-06",
    "nearestResort": "Brantling",
    "nearestResortDist": 13.6
  },
  {
    "id": "osm-8515852889",
    "name": "Lakes Urgent Care",
    "type": "urgent_care",
    "lat": 42.557178,
    "lon": -83.437934,
    "address": "2300 Haggerty Road",
    "city": "West Bloomfield",
    "state": "MI",
    "zip": "48323",
    "phone": "",
    "website": "https://lakesurgentcare.com/",
    "sourceUrl": "https://www.openstreetmap.org/node/8515852889",
    "lastVerified": "2026-01-06",
    "nearestResort": "Pine Knob",
    "nearestResortDist": 13.6
  },
  {
    "id": "osm-4913639120",
    "name": "MedExpress",
    "type": "urgent_care",
    "lat": 40.372666,
    "lon": -79.982349,
    "address": "3516 Saw Mill Run Boulevard",
    "city": "Pittsburgh",
    "state": "PA",
    "zip": "15227",
    "phone": "",
    "website": "",
    "sourceUrl": "https://www.openstreetmap.org/node/4913639120",
    "lastVerified": "2026-01-06",
    "nearestResort": "Boyce Park",
    "nearestResortDist": 13.8
  },
  {
    "id": "osm-293233329",
    "name": "UW Health West Towne Clinic and Urgent Care",
    "type": "urgent_care",
    "lat": 43.061385,
    "lon": -89.505779,
    "address": "7102 Mineral Point Road",
    "city": "Madison",
    "state": "MI",
    "zip": "53717",
    "phone": "+1-608-828-7676",
    "website": "https://www.uwhealth.org/",
    "sourceUrl": "https://www.openstreetmap.org/way/293233329",
    "lastVerified": "2026-01-06",
    "nearestResort": "Tyrol Basin",
    "nearestResortDist": 14.0
  },
  {
    "id": "osm-710715448",
    "name": "MedExpress Urgent Care",
    "type": "urgent_care",
    "lat": 40.286435,
    "lon": -79.382734,
    "address": "3876 Route 30",
    "city": "Latrobe",
    "state": "PA",
    "zip": "15650",
    "phone": "",
    "website": "",
    "sourceUrl": "https://www.openstreetmap.org/way/710715448",
    "lastVerified": "2026-01-06",
    "nearestResort": "Laurel Mountain",
    "nearestResortDist": 14.0
  },
  {
    "id": "osm-13387658905",
    "name": "PromptMed Urgent Care",
    "type": "urgent_care",
    "lat": 42.337354,
    "lon": -88.028215,
    "address": "792 East Belvidere Road",
    "city": "Grayslake",
    "state": "IL",
    "zip": "60030",
    "phone": "+12243716100",
    "website": "",
    "sourceUrl": "https://www.openstreetmap.org/node/13387658905",
    "lastVerified": "2026-01-06",
    "nearestResort": "Wilmot Mountain",
    "nearestResortDist": 14.1
  },
  {
    "id": "osm-13387658905",
    "name": "PromptMed Urgent Care",
    "type": "urgent_care",
    "lat": 42.337354,
    "lon": -88.028215,
    "address": "792 East Belvidere Road",
    "city": "Grayslake",
    "state": "MI",
    "zip": "60030",
    "phone": "+12243716100",
    "website": "",
    "sourceUrl": "https://www.openstreetmap.org/node/13387658905",
    "lastVerified": "2026-01-06",
    "nearestResort": "Wilmot Mountain",
    "nearestResortDist": 14.1
  },
  {
    "id": "osm-11221471408",
    "name": "Friendly Urgent Care",
    "type": "urgent_care",
    "lat": 40.900622,
    "lon": -74.000366,
    "address": "",
    "city": "",
    "state": "NY",
    "zip": "",
    "phone": "",
    "website": "",
    "sourceUrl": "https://www.openstreetmap.org/node/11221471408",
    "lastVerified": "2026-01-06",
    "nearestResort": "Campgaw Mountain",
    "nearestResortDist": 14.2
  },
  {
    "id": "osm-8301086577",
    "name": "Pro-Health Urgent Care of Rochester Hills",
    "type": "urgent_care",
    "lat": 42.683082,
    "lon": -83.151572,
    "address": "1268 Walton Boulevard",
    "city": "Rochester Hills",
    "state": "MI",
    "zip": "48307",
    "phone": "",
    "website": "",
    "sourceUrl": "https://www.openstreetmap.org/node/8301086577",
    "lastVerified": "2026-01-06",
    "nearestResort": "Pine Knob",
    "nearestResortDist": 14.2
  },
  {
    "id": "osm-47199421",
    "name": "Park Nicollet Urgent Care",
    "type": "urgent_care",
    "lat": 44.933653,
    "lon": -93.345819,
    "address": "3800 Park Nicollet Boulevard",
    "city": "Saint Louis Park",
    "state": "MN",
    "zip": "55416",
    "phone": "",
    "website": "",
    "sourceUrl": "https://www.openstreetmap.org/way/47199421",
    "lastVerified": "2026-01-06",
    "nearestResort": "Buck Hill",
    "nearestResortDist": 14.2
  },
  {
    "id": "osm-1684092502",
    "name": "Bluecrescent Urgent Care",
    "type": "urgent_care",
    "lat": 44.934016,
    "lon": -93.212541,
    "address": "3809 42nd Avenue South",
    "city": "Minneapolis",
    "state": "MN",
    "zip": "55406",
    "phone": "",
    "website": "",
    "sourceUrl": "https://www.openstreetmap.org/node/1684092502",
    "lastVerified": "2026-01-06",
    "nearestResort": "Buck Hill",
    "nearestResortDist": 14.3
  },
  {
    "id": "osm-396616565",
    "name": "Renown Health Urgent Care at Summit Ridge",
    "type": "urgent_care",
    "lat": 39.521098,
    "lon": -119.858601,
    "address": "4791 Summit Ridge Drive",
    "city": "Reno",
    "state": "NV",
    "zip": "89523",
    "phone": "",
    "website": "",
    "sourceUrl": "https://www.openstreetmap.org/way/396616565",
    "lastVerified": "2026-01-06",
    "nearestResort": "Mt Rose",
    "nearestResortDist": 14.3
  },
  {
    "id": "osm-41374874",
    "name": "PM Pediatric Urgent Care",
    "type": "urgent_care",
    "lat": 40.072555,
    "lon": -75.436375,
    "address": "101 East Swedesford Road",
    "city": "Wayne",
    "state": "PA",
    "zip": "19087",
    "phone": "",
    "website": "",
    "sourceUrl": "https://www.openstreetmap.org/way/41374874",
    "lastVerified": "2026-01-06",
    "nearestResort": "Spring Mountain",
    "nearestResortDist": 14.3
  },
  {
    "id": "osm-7805071019",
    "name": "GoHealth Urgent Care",
    "type": "urgent_care",
    "lat": 41.714391,
    "lon": -72.608951,
    "address": "2520 Main Street",
    "city": "Glastonbury",
    "state": "NY",
    "zip": "06033",
    "phone": "+1 860 968 0430",
    "website": "https://www.gohealthuc.com/connecticut/hartford/glastonbury",
    "sourceUrl": "https://www.openstreetmap.org/node/7805071019",
    "lastVerified": "2026-01-06",
    "nearestResort": "Powder Ridge",
    "nearestResortDist": 14.4
  },
  {
    "id": "osm-116894972",
    "name": "Concentra Urgent Care",
    "type": "urgent_care",
    "lat": 41.241265,
    "lon": -75.850382,
    "address": "268 Highland Park Boulevard",
    "city": "Wilkes-Barre Township",
    "state": "NY",
    "zip": "18702",
    "phone": "+1 608 829 1888",
    "website": "https://www.concentra.com/urgent-care-centers/pennsylvania/philadelphia/wilkes-barre-urgent-care/",
    "sourceUrl": "https://www.openstreetmap.org/way/116894972",
    "lastVerified": "2026-01-06",
    "nearestResort": "Bear Creek",
    "nearestResortDist": 14.4
  },
  {
    "id": "osm-116894972",
    "name": "Concentra Urgent Care",
    "type": "urgent_care",
    "lat": 41.241265,
    "lon": -75.850382,
    "address": "268 Highland Park Boulevard",
    "city": "Wilkes-Barre Township",
    "state": "PA",
    "zip": "18702",
    "phone": "+1 608 829 1888",
    "website": "https://www.concentra.com/urgent-care-centers/pennsylvania/philadelphia/wilkes-barre-urgent-care/",
    "sourceUrl": "https://www.openstreetmap.org/way/116894972",
    "lastVerified": "2026-01-06",
    "nearestResort": "Bear Creek",
    "nearestResortDist": 14.4
  },
  {
    "id": "osm-2981660119",
    "name": "MedExpress Urgent Care",
    "type": "urgent_care",
    "lat": 41.249818,
    "lon": -75.847893,
    "address": "",
    "city": "",
    "state": "NY",
    "zip": "",
    "phone": "",
    "website": "",
    "sourceUrl": "https://www.openstreetmap.org/node/2981660119",
    "lastVerified": "2026-01-06",
    "nearestResort": "Montage Mountain",
    "nearestResortDist": 14.6
  },
  {
    "id": "osm-2981660119",
    "name": "MedExpress Urgent Care",
    "type": "urgent_care",
    "lat": 41.249818,
    "lon": -75.847893,
    "address": "",
    "city": "",
    "state": "PA",
    "zip": "",
    "phone": "",
    "website": "",
    "sourceUrl": "https://www.openstreetmap.org/node/2981660119",
    "lastVerified": "2026-01-06",
    "nearestResort": "Montage Mountain",
    "nearestResortDist": 14.6
  },
  {
    "id": "osm-10887707883",
    "name": "Total Access Urgent Care",
    "type": "urgent_care",
    "lat": 38.50527,
    "lon": -90.37871,
    "address": "",
    "city": "",
    "state": "IL",
    "zip": "",
    "phone": "",
    "website": "",
    "sourceUrl": "https://www.openstreetmap.org/node/10887707883",
    "lastVerified": "2026-01-06",
    "nearestResort": "Hidden Valley",
    "nearestResortDist": 14.7
  },
  {
    "id": "osm-11491130537",
    "name": "Midlands Family Urgent Care",
    "type": "urgent_care",
    "lat": 41.13932,
    "lon": -96.040219,
    "address": "312 Olson Drive",
    "city": "Papillion",
    "state": "IA",
    "zip": "68046",
    "phone": "",
    "website": "",
    "sourceUrl": "https://www.openstreetmap.org/node/11491130537",
    "lastVerified": "2026-01-06",
    "nearestResort": "Mt Crescent",
    "nearestResortDist": 14.7
  },
  {
    "id": "osm-10887707883",
    "name": "Total Access Urgent Care",
    "type": "urgent_care",
    "lat": 38.50527,
    "lon": -90.37871,
    "address": "",
    "city": "",
    "state": "MO",
    "zip": "",
    "phone": "",
    "website": "",
    "sourceUrl": "https://www.openstreetmap.org/node/10887707883",
    "lastVerified": "2026-01-06",
    "nearestResort": "Hidden Valley",
    "nearestResortDist": 14.7
  },
  {
    "id": "osm-5386834434",
    "name": "Gowanda Urgent Care & Medical Center",
    "type": "urgent_care",
    "lat": 42.458992,
    "lon": -78.931538,
    "address": "34 Commercial Street",
    "city": "Gowanda",
    "state": "NY",
    "zip": "14070",
    "phone": "+1 716 532 8100",
    "website": "http://tlchealth.org/",
    "sourceUrl": "https://www.openstreetmap.org/node/5386834434",
    "lastVerified": "2026-01-06",
    "nearestResort": "Kissing Bridge",
    "nearestResortDist": 14.8
  },
  {
    "id": "osm-147709912",
    "name": "Rochester Regional Health Urgent Care",
    "type": "urgent_care",
    "lat": 43.20941,
    "lon": -77.45081,
    "address": "1065 Ridge Road",
    "city": "Webster",
    "state": "NY",
    "zip": "14580",
    "phone": "+1 585-872-2273",
    "website": "https://www.rochesterregional.org/locations/urgent-care/webster",
    "sourceUrl": "https://www.openstreetmap.org/way/147709912",
    "lastVerified": "2026-01-06",
    "nearestResort": "Brantling",
    "nearestResortDist": 14.8
  },
  {
    "id": "osm-5976092422",
    "name": "PhysicianOne Urgent Care Glastonbury",
    "type": "urgent_care",
    "lat": 41.723305,
    "lon": -72.614454,
    "address": "2928 Main Street",
    "city": "Glastonbury",
    "state": "NY",
    "zip": "06033",
    "phone": "",
    "website": "",
    "sourceUrl": "https://www.openstreetmap.org/node/5976092422",
    "lastVerified": "2026-01-06",
    "nearestResort": "Powder Ridge",
    "nearestResortDist": 14.9
  },
  {
    "id": "osm-13240208299",
    "name": "Mercy GoHealth Urgent Care",
    "type": "urgent_care",
    "lat": 38.558769,
    "lon": -90.380118,
    "address": "9551 Watson Road",
    "city": "Crestwood",
    "state": "IL",
    "zip": "63126",
    "phone": "+13145011826",
    "website": "",
    "sourceUrl": "https://www.openstreetmap.org/node/13240208299",
    "lastVerified": "2026-01-06",
    "nearestResort": "Hidden Valley",
    "nearestResortDist": 14.9
  },
  {
    "id": "osm-13240208299",
    "name": "Mercy GoHealth Urgent Care",
    "type": "urgent_care",
    "lat": 38.558769,
    "lon": -90.380118,
    "address": "9551 Watson Road",
    "city": "Crestwood",
    "state": "MO",
    "zip": "63126",
    "phone": "+13145011826",
    "website": "",
    "sourceUrl": "https://www.openstreetmap.org/node/13240208299",
    "lastVerified": "2026-01-06",
    "nearestResort": "Hidden Valley",
    "nearestResortDist": 14.9
  },
  {
    "id": "osm-667359232",
    "name": "Concentra",
    "type": "urgent_care",
    "lat": 44.438237,
    "lon": -73.211809,
    "address": "",
    "city": "",
    "state": "VT",
    "zip": "",
    "phone": "",
    "website": "",
    "sourceUrl": "https://www.openstreetmap.org/way/667359232",
    "lastVerified": "2026-01-06",
    "nearestResort": "Cochran's",
    "nearestResortDist": 15.0
  },
  {
    "id": "osm-667359232",
    "name": "Concentra",
    "type": "urgent_care",
    "lat": 44.438237,
    "lon": -73.211809,
    "address": "",
    "city": "",
    "state": "NY",
    "zip": "",
    "phone": "",
    "website": "",
    "sourceUrl": "https://www.openstreetmap.org/way/667359232",
    "lastVerified": "2026-01-06",
    "nearestResort": "Cochran's",
    "nearestResortDist": 15.0
  },
  {
    "id": "osm-673937558",
    "name": "Mercy Urgent Care",
    "type": "urgent_care",
    "lat": 38.510924,
    "lon": -90.372672,
    "address": "12348 Old Tesson Road",
    "city": "Saint Louis",
    "state": "IL",
    "zip": "63128",
    "phone": "+1 314-272-2014",
    "website": "https://www.mercy.net/",
    "sourceUrl": "https://www.openstreetmap.org/way/673937558",
    "lastVerified": "2026-01-06",
    "nearestResort": "Hidden Valley",
    "nearestResortDist": 15.0
  },
  {
    "id": "osm-6701050769",
    "name": "Greenway Urgent Care",
    "type": "urgent_care",
    "lat": 44.949028,
    "lon": -93.321733,
    "address": "3270 Lake Street West",
    "city": "Minneapolis",
    "state": "MN",
    "zip": "55416",
    "phone": "",
    "website": "",
    "sourceUrl": "https://www.openstreetmap.org/node/6701050769",
    "lastVerified": "2026-01-06",
    "nearestResort": "Buck Hill",
    "nearestResortDist": 15.0
  },
  {
    "id": "osm-673937558",
    "name": "Mercy Urgent Care",
    "type": "urgent_care",
    "lat": 38.510924,
    "lon": -90.372672,
    "address": "12348 Old Tesson Road",
    "city": "Saint Louis",
    "state": "MO",
    "zip": "63128",
    "phone": "+1 314-272-2014",
    "website": "https://www.mercy.net/",
    "sourceUrl": "https://www.openstreetmap.org/way/673937558",
    "lastVerified": "2026-01-06",
    "nearestResort": "Hidden Valley",
    "nearestResortDist": 15.0
  },
  {
    "id": "osm-1133513324",
    "name": "Aspire Urgent Care",
    "type": "urgent_care",
    "lat": 40.302536,
    "lon": -76.810184,
    "address": "",
    "city": "",
    "state": "PA",
    "zip": "",
    "phone": "",
    "website": "",
    "sourceUrl": "https://www.openstreetmap.org/way/1133513324",
    "lastVerified": "2026-01-06",
    "nearestResort": "Roundtop",
    "nearestResortDist": 15.0
  },
  {
    "id": "osm-12811658137",
    "name": "MedRite Urgent Care",
    "type": "urgent_care",
    "lat": 40.844242,
    "lon": -74.128593,
    "address": "",
    "city": "",
    "state": "NY",
    "zip": "",
    "phone": "",
    "website": "",
    "sourceUrl": "https://www.openstreetmap.org/node/12811658137",
    "lastVerified": "2026-01-06",
    "nearestResort": "Campgaw Mountain",
    "nearestResortDist": 15.1
  },
  {
    "id": "osm-229483227",
    "name": "Banner Urgent Care",
    "type": "urgent_care",
    "lat": 32.272702,
    "lon": -110.944375,
    "address": "3611 East Prince Road",
    "city": "Tucson",
    "state": "AZ",
    "zip": "85719",
    "phone": "+1 520-694-4650",
    "website": "https://www.bannerhealth.com/locations/tucson/banner-urgent-care-prince",
    "sourceUrl": "https://www.openstreetmap.org/way/229483227",
    "lastVerified": "2026-01-06",
    "nearestResort": "Mt Lemmon",
    "nearestResortDist": 15.1
  },
  {
    "id": "osm-5775683243",
    "name": "Priority Urgent Care",
    "type": "urgent_care",
    "lat": 41.422625,
    "lon": -73.108395,
    "address": "278 Oxford Road",
    "city": "Oxford",
    "state": "NY",
    "zip": "06478",
    "phone": "+1-475-675-5502",
    "website": "",
    "sourceUrl": "https://www.openstreetmap.org/node/5775683243",
    "lastVerified": "2026-01-06",
    "nearestResort": "Mount Southington",
    "nearestResortDist": 15.2
  },
  {
    "id": "osm-357564927",
    "name": "Renown Health Urgent Care - Ryland",
    "type": "urgent_care",
    "lat": 39.524078,
    "lon": -119.799069,
    "address": "975 Ryland Street",
    "city": "Reno",
    "state": "NV",
    "zip": "89502",
    "phone": "+1 775 982 5000",
    "website": "https://www.renown.org/find/location/renown_health_urgent_care-ryland/",
    "sourceUrl": "https://www.openstreetmap.org/node/357564927",
    "lastVerified": "2026-01-06",
    "nearestResort": "Mt Rose",
    "nearestResortDist": 15.2
  },
  {
    "id": "osm-8175411848",
    "name": "Tower Health Urgent Care",
    "type": "urgent_care",
    "lat": 40.262006,
    "lon": -75.729929,
    "address": "1139 Benjamin Franklin Highway West",
    "city": "Douglassville",
    "state": "PA",
    "zip": "19518-1852",
    "phone": "+1-610-385-4444",
    "website": "https://towerhealth.org/locations/tower-health-urgent-care-douglassville",
    "sourceUrl": "https://www.openstreetmap.org/node/8175411848",
    "lastVerified": "2026-01-06",
    "nearestResort": "Spring Mountain",
    "nearestResortDist": 15.2
  },
  {
    "id": "osm-10552742616",
    "name": "Fanny Allen Urgent Care",
    "type": "urgent_care",
    "lat": 44.496601,
    "lon": -73.157677,
    "address": "790 College Parkway",
    "city": "Colchester",
    "state": "VT",
    "zip": "05446",
    "phone": "+1 802-847-1170",
    "website": "https://www.uvmhealth.org/medcenter/departments-and-programs/urgent-care",
    "sourceUrl": "https://www.openstreetmap.org/node/10552742616",
    "lastVerified": "2026-01-06",
    "nearestResort": "Cochran's",
    "nearestResortDist": 15.3
  },
  {
    "id": "osm-10552742616",
    "name": "Fanny Allen Urgent Care",
    "type": "urgent_care",
    "lat": 44.496601,
    "lon": -73.157677,
    "address": "790 College Parkway",
    "city": "Colchester",
    "state": "NY",
    "zip": "05446",
    "phone": "+1 802-847-1170",
    "website": "https://www.uvmhealth.org/medcenter/departments-and-programs/urgent-care",
    "sourceUrl": "https://www.openstreetmap.org/node/10552742616",
    "lastVerified": "2026-01-06",
    "nearestResort": "Cochran's",
    "nearestResortDist": 15.3
  },
  {
    "id": "osm-840672128",
    "name": "Urgent Care",
    "type": "urgent_care",
    "lat": 32.249413,
    "lon": -110.909445,
    "address": "",
    "city": "",
    "state": "AZ",
    "zip": "",
    "phone": "",
    "website": "",
    "sourceUrl": "https://www.openstreetmap.org/way/840672128",
    "lastVerified": "2026-01-06",
    "nearestResort": "Mt Lemmon",
    "nearestResortDist": 15.3
  },
  {
    "id": "osm-11380254553",
    "name": "iCare Urgent Care",
    "type": "urgent_care",
    "lat": 40.274159,
    "lon": -78.846046,
    "address": "",
    "city": "",
    "state": "PA",
    "zip": "",
    "phone": "",
    "website": "",
    "sourceUrl": "https://www.openstreetmap.org/node/11380254553",
    "lastVerified": "2026-01-06",
    "nearestResort": "Blue Knob",
    "nearestResortDist": 15.3
  },
  {
    "id": "osm-11229778621",
    "name": "Wellnow Urgent Care",
    "type": "urgent_care",
    "lat": 42.679749,
    "lon": -73.83451,
    "address": "1438 Western Avenue",
    "city": "Albany",
    "state": "NY",
    "zip": "12203",
    "phone": "",
    "website": "",
    "sourceUrl": "https://www.openstreetmap.org/node/11229778621",
    "lastVerified": "2026-01-06",
    "nearestResort": "Maple Ski Ridge",
    "nearestResortDist": 15.4
  },
  {
    "id": "osm-854302313",
    "name": "AFC Urgent Care",
    "type": "urgent_care",
    "lat": 40.093165,
    "lon": -75.283907,
    "address": "48 East Ridge Pike",
    "city": "Conshohocken",
    "state": "PA",
    "zip": "19428",
    "phone": "+1 484-243-6735",
    "website": "https://www.afcurgentcare.com/conshohocken/",
    "sourceUrl": "https://www.openstreetmap.org/way/854302313",
    "lastVerified": "2026-01-06",
    "nearestResort": "Spring Mountain",
    "nearestResortDist": 15.4
  },
  {
    "id": "osm-11764757766",
    "name": "Northwell Health GoHealth Urgent Clinic",
    "type": "urgent_care",
    "lat": 41.278037,
    "lon": -73.780476,
    "address": "",
    "city": "",
    "state": "NY",
    "zip": "",
    "phone": "",
    "website": "",
    "sourceUrl": "https://www.openstreetmap.org/node/11764757766",
    "lastVerified": "2026-01-06",
    "nearestResort": "Thunder Ridge",
    "nearestResortDist": 15.5
  },
  {
    "id": "osm-12230365469",
    "name": "St. Luke's Urgent Care",
    "type": "urgent_care",
    "lat": 38.43824,
    "lon": -90.382503,
    "address": "832 Arnold Commons Drive",
    "city": "Arnold",
    "state": "IL",
    "zip": "63010",
    "phone": "+16366857899",
    "website": "https://www.stlukes-stl.com/services/urgent-care/urgent-care-arnold.html",
    "sourceUrl": "https://www.openstreetmap.org/node/12230365469",
    "lastVerified": "2026-01-06",
    "nearestResort": "Hidden Valley",
    "nearestResortDist": 15.5
  },
  {
    "id": "osm-12230365469",
    "name": "St. Luke's Urgent Care",
    "type": "urgent_care",
    "lat": 38.43824,
    "lon": -90.382503,
    "address": "832 Arnold Commons Drive",
    "city": "Arnold",
    "state": "MO",
    "zip": "63010",
    "phone": "+16366857899",
    "website": "https://www.stlukes-stl.com/services/urgent-care/urgent-care-arnold.html",
    "sourceUrl": "https://www.openstreetmap.org/node/12230365469",
    "lastVerified": "2026-01-06",
    "nearestResort": "Hidden Valley",
    "nearestResortDist": 15.5
  },
  {
    "id": "osm-11963437186",
    "name": "Rochester Regional Health Urgent Care",
    "type": "urgent_care",
    "lat": 43.12688,
    "lon": -77.565965,
    "address": "1881 Monroe Avenue",
    "city": "Rochester",
    "state": "NY",
    "zip": "14618",
    "phone": "+1 585-613-3099",
    "website": "https://www.rochesterregional.org/locations/urgent-care/brighton",
    "sourceUrl": "https://www.openstreetmap.org/node/11963437186",
    "lastVerified": "2026-01-06",
    "nearestResort": "Brantling",
    "nearestResortDist": 15.7
  },
  {
    "id": "osm-971852902",
    "name": "Shoreline Clinic",
    "type": "urgent_care",
    "lat": 41.291224,
    "lon": -72.663731,
    "address": "",
    "city": "",
    "state": "NY",
    "zip": "",
    "phone": "",
    "website": "",
    "sourceUrl": "https://www.openstreetmap.org/way/971852902",
    "lastVerified": "2026-01-06",
    "nearestResort": "Powder Ridge",
    "nearestResortDist": 15.7
  },
  {
    "id": "osm-1290057143",
    "name": "UR Medicine Urgent Care",
    "type": "urgent_care",
    "lat": 43.19652,
    "lon": -77.499605,
    "address": "2070 Empire Boulevard",
    "city": "Webster",
    "state": "NY",
    "zip": "14580",
    "phone": "+1 585-602-3900",
    "website": "https://www.urmc.rochester.edu/locations/urgent-care-webster",
    "sourceUrl": "https://www.openstreetmap.org/way/1290057143",
    "lastVerified": "2026-01-06",
    "nearestResort": "Brantling",
    "nearestResortDist": 15.7
  },
  {
    "id": "osm-165268583",
    "name": "NextCare Urgent Care",
    "type": "urgent_care",
    "lat": 32.28448,
    "lon": -110.977027,
    "address": "",
    "city": "",
    "state": "AZ",
    "zip": "",
    "phone": "",
    "website": "",
    "sourceUrl": "https://www.openstreetmap.org/way/165268583",
    "lastVerified": "2026-01-06",
    "nearestResort": "Mt Lemmon",
    "nearestResortDist": 15.7
  },
  {
    "id": "osm-479371367",
    "name": "St. Luke's Urgent Care",
    "type": "urgent_care",
    "lat": 38.670619,
    "lon": -90.437133,
    "address": "11550 Olive Boulevard",
    "city": "Creve Coeur",
    "state": "IL",
    "zip": "63141",
    "phone": "+1 314-542-7690",
    "website": "https://stlukes-stl.com/",
    "sourceUrl": "https://www.openstreetmap.org/way/479371367",
    "lastVerified": "2026-01-06",
    "nearestResort": "Hidden Valley",
    "nearestResortDist": 15.7
  },
  {
    "id": "osm-4419519431",
    "name": "All Patients Urgent Care",
    "type": "urgent_care",
    "lat": 42.523983,
    "lon": -83.514545,
    "address": "31208 Beck Road",
    "city": "",
    "state": "MI",
    "zip": "",
    "phone": "+1 248 560-7765",
    "website": "http://www.noviemergencymedicalcare.com",
    "sourceUrl": "https://www.openstreetmap.org/node/4419519431",
    "lastVerified": "2026-01-06",
    "nearestResort": "Mt Brighton",
    "nearestResortDist": 15.7
  },
  {
    "id": "osm-479371367",
    "name": "St. Luke's Urgent Care",
    "type": "urgent_care",
    "lat": 38.670619,
    "lon": -90.437133,
    "address": "11550 Olive Boulevard",
    "city": "Creve Coeur",
    "state": "MO",
    "zip": "63141",
    "phone": "+1 314-542-7690",
    "website": "https://stlukes-stl.com/",
    "sourceUrl": "https://www.openstreetmap.org/way/479371367",
    "lastVerified": "2026-01-06",
    "nearestResort": "Hidden Valley",
    "nearestResortDist": 15.7
  },
  {
    "id": "osm-8258964398",
    "name": "GoHealth Urgent Care",
    "type": "urgent_care",
    "lat": 41.892377,
    "lon": -72.651499,
    "address": "1055 Kennedy Road",
    "city": "Windsor",
    "state": "NY",
    "zip": "06095",
    "phone": "+1 860 787 5786",
    "website": "https://www.gohealthuc.com/connecticut/hartford/windsor",
    "sourceUrl": "https://www.openstreetmap.org/node/8258964398",
    "lastVerified": "2026-01-06",
    "nearestResort": "Ski Sundown",
    "nearestResortDist": 15.8
  },
  {
    "id": "osm-4740857490",
    "name": "MedWell Urgent Care",
    "type": "urgent_care",
    "lat": 40.26996,
    "lon": -78.859435,
    "address": "",
    "city": "",
    "state": "PA",
    "zip": "",
    "phone": "",
    "website": "",
    "sourceUrl": "https://www.openstreetmap.org/node/4740857490",
    "lastVerified": "2026-01-06",
    "nearestResort": "Tanglwood",
    "nearestResortDist": 15.8
  },